$GNGSA,A,3,31,24,23,16,03,05,09,13,,,,,0.95,0.47,0.83,3*08
$GNGSA,A,3,10,14,24,25,26,44,29,33,35,40,41,07,0.95,0.47,0.83,4*0A
$GNGSA,A,3,,,,,,,,,,,,,0.95,0.47,0.83,5'
s 308 '$GNGGA,172800.30,5539.10837,N,01234.50064,E,2,12,0.47,3.2,M,39.5,M,,*44
$GNGSA,A,3,10,12,13,14,15,23,01,17,22,24,19,02,0.95,0.47,0.83,1*0E
$GNGSA,A,3,31,24,23,16,03,05,09,13,,,,,0.95,0.47,0.83,3*08
$GNGSA,A,3,10,14,24,25,26,44,29,33,35,40,41,07,0.95,0.47,0.83,4*0A
$GNGSA,A,3,,,,,,,,,,,,,0.95,0.47,0.83,5'
s 308 '$GNGGA,172800.40,5539.10838,N,01234.50064,E,2,12,0.47,3.2,M,39.5,M,,*4C
$GNGSA,A,3,10,12,13,14,15,23,01,17,22,24,19,02,0.95,0.47,0.83,1*0E
$GNGSA,A,3,31,24,23,16,03,05,09,13,,,,,0.95,0.47,0.83,3*08
$GNGSA,A,3,10,14,24,25,26,44,29,33,35,40,41,07,0.95,0.47,0.83,4*0A
$GNGSA,A,3,,,,,,,,,,,,,0.95,0.47,0.83,5'
s 308 '$GNGGA,172800.50,5539.10837,N,01234.50064,E,2,12,0.47,3.2,M,39.5,M,,*42
$GNGSA,A,3,10,12,13,14,15,23,01,17,22,24,19,02,0.95,0.47,0.83,1*0E
$GNGSA,A,3,31,24,23,16,03,05,09,13,,,,,0.95,0.47,0.83,3*08
$GNGSA,A,3,10,14,24,25,26,44,29,33,35,40,41,07,0.95,0.47,0.83,4*0A
$GNGSA,A,3,,,,,,,,,,,,,0.95,0.47,0.83,5'
s 308 '$GNGGA,172800.60,5539.10837,N,01234.50063,E,2,12,0.47,3.2,M,39.5,M,,*46
$GNGSA,A,3,10,12,13,14,15,23,01,17,22,24,19,02,0.95,0.47,0.83,1*0E
$GNGSA,A,3,31,24,23,16,03,05,09,13,,,,,0.95,0.47,0.83,3*08
$GNGSA,A,3,10,14,24,25,26,44,29,33,35,40,41,07,0.95,0.47,0.83,4*0A
$GNGSA,A,3,,,,,,,,,,,,,0.95,0.47,0.83,5'
MO RADIO
s 308 '$GNGGA,172800.70,5539.10837,N,01234.50063,E,2,12,0.47,3.2,M,39.5,M,,*47
$GNGSA,A,3,10,12,13,14,15,23,01,17,22,24,19,02,0.95,0.47,0.83,1*0E
$GNGSA,A,3,31,24,23,16,03,05,09,13,,,,,0.95,0.47,0.83,3*08
$GNGSA,A,3,10,14,24,25,26,44,29,33,35,40,41,07,0.95,0.47,0.83,4*0A
$GNGSA,A,3,,,,,,,,,,,,,0.95,0.47,0.83,5'
s 308 '$GNGGA,172800.80,5539.10837,N,01234.50063,E,2,12,0.47,3.2,M,39.5,M,,*48
$GNGSA,A,3,10,12,13,14,15,23,01,17,22,24,19,02,0.95,0.47,0.83,1*0E
$GNGSA,A,3,31,24,23,16,03,05,09,13,,,,,0.95,0.47,0.83,3*08
$GNGSA,A,3,10,14,24,25,26,44,29,33,35,40,41,07,0.95,0.47,0.83,4*0A
$GNGSA,A,3,,,,,,,,,,,,,0.95,0.47,0.83,5'
s 308 '$GNGGA,172800.90,5539.10837,N,01234.50063,E,2,12,0.47,3.2,M,39.5,M,,*49
$GNGSA,A,3,10,12,13,14,15,23,01,17,22,24,19,02,0.95,0.47,0.83,1*0E
$GNGSA,A,3,31,24,23,16,03,05,09,13,,,,,0.95,0.47,0.83,3*08
$GNGSA,A,3,10,14,24,25,26,44,29,33,35,40,41,07,0.95,0.47,0.83,4*0A
$GNGSA,A,3,,,,,,,,,,,,,0.95,0.47,0.83,5'
s 308 '$GNGGA,172801.00,5539.10837,N,01234.50062,E,2,12,0.47,3.2,M,39.5,M,,*40
$GNGSA,A,3,10,12,13,14,15,23,01,17,22,24,19,02,0.95,0.47,0.83,1*0E
$GNGSA,A,3,31,24,23,16,03,05,09,13,,,,,0.95,0.47,0.83,3*08
$GNGSA,A,3,10,14,24,25,26,44,29,33,35,40,41,07,0.95,0.47,0.83,4*0A
$GNGSA,A,3,,,,,,,,,,,,,0.95,0.47,0.83,5'
s 308 '$GNGGA,172801.20,5539.10837,N,01234.50063,E,2,12,0.47,3.2,M,39.5,M,,*43
$GNGSA,A,3,10,12,13,14,15,23,01,17,22,24,19,02,0.95,0.47,0.83,1*0E
$GNGSA,A,3,31,24,23,16,03,05,09,13,,,,,0.95,0.47,0.83,3*08
$GNGSA,A,3,10,14,24,25,26,44,29,33,35,40,41,07,0.95,0.47,0.83,4*0A
$GNGSA,A,3,,,,,,,,,,,,,0.95,0.47,0.83,5'
s 308 '$GNGGA,172801.30,5539.10837,N,01234.50063,E,2,12,0.47,3.2,M,39.5,M,,*42
$GNGSA,A,3,10,12,13,14,15,23,01,17,22,24,19,02,0.95,0.47,0.83,1*0E
$GNGSA,A,3,31,24,23,16,03,05,09,13,,,,,0.95,0.47,0.83,3*08
$GNGSA,A,3,10,14,24,25,26,44,29,33,35,40,41,07,0.95,0.47,0.83,4*0A
$GNGSA,A,3,,,,,,,,,,,,,0.95,0.47,0.83,5'
s 308 '$GNGGA,172801.40,5539.10837,N,01234.50064,E,2,12,0.47,3.2,M,39.5,M,,*42
$GNGSA,A,3,10,12,13,14,15,23,01,17,22,24,19,02,0.95,0.47,0.83,1*0E
$GNGSA,A,3,31,24,23,16,03,05,09,13,,,,,0.95,0.47,0.83,3*08
$GNGSA,A,3,10,14,24,25,26,44,29,33,35,40,41,07,0.95,0.47,0.83,4*0A
$GNGSA,A,3,,,,,,,,,,,,,0.95,0.47,0.83,5'
s 308 '$GNGGA,172801.50,5539.10837,N,01234.50064,E,2,12,0.47,3.2,M,39.5,M,,*43
$GNGSA,A,3,10,12,13,14,15,23,01,17,22,24,19,02,0.95,0.47,0.83,1*0E
$GNGSA,A,3,31,24,23,16,03,05,09,13,,,,,0.95,0.47,0.83,3*08
$GNGSA,A,3,10,14,24,25,26,44,29,33,35,40,41,07,0.95,0.47,0.83,4*0A
$GNGSA,A,3,,,,,,,,,,,,,0.95,0.47,0.83,5'
s 308 '$GNGGA,172801.60,5539.10837,N,01234.50064,E,2,12,0.47,3.2,M,39.5,M,,*40
$GNGSA,A,3,10,12,13,14,15,23,01,17,22,24,19,02,0.95,0.47,0.83,1*0E
$GNGSA,A,3,31,24,23,16,03,05,09,13,,,,,0.95,0.47,0.83,3*08
$GNGSA,A,3,10,14,24,25,26,44,29,33,35,40,41,07,0.95,0.47,0.83,4*0A
$GNGSA,A,3,,,,,,,,,,,,,0.95,0.47,0.83,5'
s 308 '$GNGGA,172801.70,5539.10837,N,01234.50064,E,2,12,0.47,3.2,M,39.5,M,,*41
$GNGSA,A,3,10,12,13,14,15,23,01,17,22,24,19,02,0.95,0.47,0.83,1*0E
$GNGSA,A,3,31,24,23,16,03,05,09,13,,,,,0.95,0.47,0.83,3*08
$GNGSA,A,3,10,14,24,25,26,44,29,33,35,40,41,07,0.95,0.47,0.83,4*0A
$GNGSA,A,3,,,,,,,,,,,,,0.95,0.47,0.83,5'
s 308 '$GNGGA,172801.80,5539.10837,N,01234.50064,E,2,12,0.47,3.2,M,39.5,M,,*4E
$GNGSA,A,3,10,12,13,14,15,23,01,17,22,24,19,02,0.95,0.47,0.83,1*0E
$GNGSA,A,3,31,24,23,16,03,05,09,13,,,,,0.95,0.47,0.83,3*08
$GNGSA,A,3,10,14,24,25,26,44,29,33,35,40,41,07,0.95,0.47,0.83,4*0A
$GNGSA,A,3,,,,,,,,,,,,,0.95,0.47,0.83,5'
s 308 '$GNGGA,172801.90,5539.10837,N,01234.50063,E,2,12,0.47,3.2,M,39.5,M,,*48
$GNGSA,A,3,10,12,13,14,15,23,01,17,22,24,19,02,0.95,0.47,0.83,1*0E
$GNGSA,A,3,31,24,23,16,03,05,09,13,,,,,0.95,0.47,0.83,3*08
$GNGSA,A,3,10,14,24,25,26,44,29,33,35,40,41,07,0.95,0.47,0.83,4*0A
$GNGSA,A,3,,,,,,,,,,,,,0.95,0.47,0.83,5'
s 308 '$GNGGA,172802.00,5539.10837,N,01234.50063,E,2,12,0.47,3.2,M,39.5,M,,*42
$GNGSA,A,3,10,12,13,14,15,23,01,17,22,24,19,02,0.95,0.47,0.83,1*0E
$GNGSA,A,3,31,24,23,16,03,05,09,13,,,,,0.95,0.47,0.83,3*08
$GNGSA,A,3,10,14,24,25,26,44,29,33,35,40,41,07,0.95,0.47,0.83,4*0A
$GNGSA,A,3,,,,,,,,,,,,,0.95,0.47,0.83,5'
MO RADIO
s 308 '$GNGGA,172802.20,5539.10836,N,01234.50064,E,2,12,0.46,3.2,M,39.5,M,,*47
$GNGSA,A,3,10,12,13,14,15,23,17,22,24,19,02,,0.96,0.46,0.84,1*0A
$GNGSA,A,3,31,24,06,23,16,03,05,09,13,,,,0.96,0.46,0.84,3*0B
$GNGSA,A,3,10,14,24,25,26,44,29,33,35,40,41,07,0.96,0.46,0.84,4*0F
$GNGSA,A,3,,,,,,,,,,,,,0.96,0.46,0.84,5'
s 308 '$GNGGA,172802.30,5539.10835,N,01234.50066,E,2,12,0.46,3.3,M,39.5,M,,*46
$GNGSA,A,3,10,12,13,14,15,23,17,22,24,19,02,,0.96,0.46,0.84,1*0A
$GNGSA,A,3,31,24,06,23,16,03,05,09,13,,,,0.96,0.46,0.84,3*0B
$GNGSA,A,3,10,14,24,25,26,44,29,33,35,40,41,07,0.96,0.46,0.84,4*0F
$GNGSA,A,3,,,,,,,,,,,,,0.96,0.46,0.84,5'
s 308 '$GNGGA,172802.40,5539.10834,N,01234.50067,E,2,12,0.46,3.3,M,39.5,M,,*41
$GNGSA,A,3,10,12,13,14,15,23,17,22,24,19,02,,0.96,0.46,0.84,1*0A
$GNGSA,A,3,31,24,06,23,16,03,05,09,13,,,,0.96,0.46,0.84,3*0B
$GNGSA,A,3,10,14,24,25,26,44,29,33,35,40,41,07,0.96,0.46,0.84,4*0F
$GNGSA,A,3,,,,,,,,,,,,,0.96,0.46,0.84,5'
s 308 '$GNGGA,172802.50,5539.10833,N,01234.50067,E,2,12,0.46,3.4,M,39.5,M,,*40
$GNGSA,A,3,10,12,13,14,15,23,17,22,24,19,02,,0.96,0.46,0.84,1*0A
$GNGSA,A,3,31,24,06,23,16,03,05,09,13,,,,0.96,0.46,0.84,3*0B
$GNGSA,A,3,10,14,24,25,26,44,29,33,35,40,41,07,0.96,0.46,0.84,4*0F
$GNGSA,A,3,,,,,,,,,,,,,0.96,0.46,0.84,5'
s 308 '$GNGGA,172802.60,5539.10832,N,01234.50069,E,2,12,0.46,3.4,M,39.5,M,,*4C
$GNGSA,A,3,10,12,13,14,15,23,17,22,24,19,02,,0.96,0.46,0.84,1*0A
$GNGSA,A,3,31,24,06,23,16,03,05,09,13,,,,0.96,0.46,0.84,3*0B
$GNGSA,A,3,10,14,24,25,26,44,29,33,35,40,41,07,0.96,0.46,0.84,4*0F
$GNGSA,A,3,,,,,,,,,,,,,0.96,0.46,0.84,5'
s 308 '$GNGGA,172802.70,5539.10832,N,01234.50069,E,2,12,0.46,3.4,M,39.5,M,,*4D
$GNGSA,A,3,10,12,13,14,15,23,17,22,24,19,02,,0.96,0.46,0.84,1*0A
$GNGSA,A,3,31,24,06,23,16,03,05,09,13,,,,0.96,0.46,0.84,3*0B
$GNGSA,A,3,10,14,24,25,26,44,29,33,35,40,41,07,0.96,0.46,0.84,4*0F
$GNGSA,A,3,,,,,,,,,,,,,0.96,0.46,0.84,5'
s 308 '$GNGGA,172802.80,5539.10831,N,01234.50071,E,2,12,0.46,3.5,M,39.5,M,,*49
$GNGSA,A,3,10,12,13,14,15,23,17,22,24,19,02,,0.96,0.46,0.84,1*0A
$GNGSA,A,3,31,24,06,23,16,03,05,09,13,,,,0.96,0.46,0.84,3*0B
$GNGSA,A,3,10,14,24,25,26,44,29,33,35,40,41,07,0.96,0.46,0.84,4*0F
$GNGSA,A,3,,,,,,,,,,,,,0.96,0.46,0.84,5'
s 308 '$GNGGA,172802.90,5539.10830,N,01234.50070,E,2,12,0.46,3.4,M,39.5,M,,*49
$GNGSA,A,3,10,12,13,14,15,23,17,22,24,19,02,,0.96,0.46,0.84,1*0A
$GNGSA,A,3,31,24,06,23,16,03,05,09,13,,,,0.96,0.46,0.84,3*0B
$GNGSA,A,3,10,14,24,25,26,44,29,33,35,40,41,07,0.96,0.46,0.84,4*0F
$GNGSA,A,3,,,,,,,,,,,,,0.96,0.46,0.84,5'
s 308 '$GNGGA,172803.00,5539.10829,N,01234.50070,E,2,12,0.46,3.4,M,39.5,M,,*49
$GNGSA,A,3,10,12,13,14,15,23,17,22,24,19,02,,0.96,0.46,0.84,1*0A
$GNGSA,A,3,31,24,06,23,16,03,05,09,13,,,,0.96,0.46,0.84,3*0B
$GNGSA,A,3,10,14,24,25,26,44,29,33,35,40,41,07,0.96,0.46,0.84,4*0F
$GNGSA,A,3,,,,,,,,,,,,,0.96,0.46,0.84,5'
s 308 '$GNGGA,172803.20,5539.10828,N,01234.50071,E,2,12,0.46,3.5,M,39.5,M,,*4A
$GNGSA,A,3,10,12,13,14,15,23,17,22,24,19,02,,0.96,0.46,0.84,1*0A
$GNGSA,A,3,31,24,06,23,16,03,05,09,13,,,,0.96,0.46,0.84,3*0B
$GNGSA,A,3,10,14,24,25,26,44,29,33,35,40,41,07,0.96,0.46,0.84,4*0F
$GNGSA,A,3,,,,,,,,,,,,,0.96,0.46,0.84,5'
s 308 '$GNGGA,172803.30,5539.10827,N,01234.50072,E,2,12,0.46,3.5,M,39.5,M,,*47
$GNGSA,A,3,10,12,13,14,15,23,17,22,24,19,02,,0.96,0.46,0.84,1*0A
$GNGSA,A,3,31,24,06,23,16,03,05,09,13,,,,0.96,0.46,0.84,3*0B
$GNGSA,A,3,10,14,24,25,26,44,29,33,35,40,41,07,0.96,0.46,0.84,4*0F
$GNGSA,A,3,,,,,,,,,,,,,0.96,0.46,0.84,5'
s 308 '$GNGGA,172803.40,5539.10827,N,01234.50073,E,2,12,0.46,3.5,M,39.5,M,,*41
$GNGSA,A,3,10,12,13,14,15,23,17,22,24,19,02,,0.96,0.46,0.84,1*0A
$GNGSA,A,3,31,24,06,23,16,03,05,09,13,,,,0.96,0.46,0.84,3*0B
$GNGSA,A,3,10,14,24,25,26,44,29,33,35,40,41,07,0.96,0.46,0.84,4*0F
$GNGSA,A,3,,,,,,,,,,,,,0.96,0.46,0.84,5'
s 308 '$GNGGA,172803.50,5539.10826,N,01234.50073,E,2,12,0.46,3.6,M,39.5,M,,*42
$GNGSA,A,3,10,12,13,14,15,23,17,22,24,19,02,,0.96,0.46,0.84,1*0A
$GNGSA,A,3,31,24,06,23,16,03,05,09,13,,,,0.96,0.46,0.84,3*0B
$GNGSA,A,3,10,14,24,25,26,44,29,33,35,40,41,07,0.96,0.46,0.84,4*0F
$GNGSA,A,3,,,,,,,,,,,,,0.96,0.46,0.84,5'
MO RADIO
s 308 '$GNGGA,172803.60,5539.10825,N,01234.50074,E,2,12,0.46,3.6,M,39.5,M,,*45
$GNGSA,A,3,10,12,13,14,15,23,17,22,24,19,02,,0.96,0.46,0.84,1*0A
$GNGSA,A,3,31,24,06,23,16,03,05,09,13,,,,0.96,0.46,0.84,3*0B
$GNGSA,A,3,10,14,24,25,26,44,29,33,35,40,41,07,0.96,0.46,0.84,4*0F
$GNGSA,A,3,,,,,,,,,,,,,0.96,0.46,0.84,5'
s 308 '$GNGGA,172803.70,5539.10825,N,01234.50074,E,2,12,0.46,3.6,M,39.5,M,,*44
$GNGSA,A,3,10,12,13,14,15,23,17,22,24,19,02,,0.96,0.46,0.84,1*0A
$GNGSA,A,3,31,24,06,23,16,03,05,09,13,,,,0.96,0.46,0.84,3*0B
$GNGSA,A,3,10,14,24,25,26,44,29,33,35,40,41,07,0.96,0.46,0.84,4*0F
$GNGSA,A,3,,,,,,,,,,,,,0.96,0.46,0.84,5'
s 308 '$GNGGA,172803.80,5539.10824,N,01234.50075,E,2,12,0.46,3.6,M,39.5,M,,*4B
$GNGSA,A,3,10,12,13,14,15,23,17,22,24,19,02,,0.96,0.46,0.84,1*0A
$GNGSA,A,3,31,24,06,23,16,03,05,09,13,,,,0.96,0.46,0.84,3*0B
$GNGSA,A,3,10,14,24,25,26,44,29,33,35,40,41,07,0.96,0.46,0.84,4*0F
$GNGSA,A,3,,,,,,,,,,,,,0.96,0.46,0.84,5'
s 308 '$GNGGA,172803.90,5539.10824,N,01234.50076,E,2,12,0.46,3.7,M,39.5,M,,*48
$GNGSA,A,3,10,12,13,14,15,23,17,22,24,19,02,,0.96,0.46,0.84,1*0A
$GNGSA,A,3,31,24,06,23,16,03,05,09,13,,,,0.96,0.46,0.84,3*0B
$GNGSA,A,3,10,14,24,25,26,44,29,33,35,40,41,07,0.96,0.46,0.84,4*0F
$GNGSA,A,3,,,,,,,,,,,,,0.96,0.46,0.84,5'
s 308 '$GNGGA,172804.00,5539.10823,N,01234.50076,E,2,12,0.46,3.7,M,39.5,M,,*41
$GNGSA,A,3,10,12,13,14,15,23,17,22,24,19,02,,0.96,0.46,0.84,1*0A
$GNGSA,A,3,31,24,06,23,16,03,05,09,13,,,,0.96,0.46,0.84,3*0B
$GNGSA,A,3,10,14,24,25,26,44,29,33,35,40,41,07,0.96,0.46,0.84,4*0F
$GNGSA,A,3,,,,,,,,,,,,,0.96,0.46,0.84,5'
s 308 '$GNGGA,172804.20,5539.10823,N,01234.50076,E,2,12,0.46,3.7,M,39.5,M,,*43
$GNGSA,A,3,10,12,13,14,15,23,17,22,24,19,02,,0.96,0.46,0.84,1*0A
$GNGSA,A,3,31,24,06,23,16,03,05,09,13,,,,0.96,0.46,0.84,3*0B
$GNGSA,A,3,10,14,24,25,26,44,29,33,35,40,41,07,0.96,0.46,0.84,4*0F
$GNGSA,A,3,,,,,,,,,,,,,0.96,0.46,0.84,5'
s 308 '$GNGGA,172804.30,5539.10823,N,01234.50076,E,2,12,0.46,3.7,M,39.5,M,,*42
$GNGSA,A,3,10,12,13,14,15,23,17,22,24,19,02,,0.96,0.46,0.84,1*0A
$GNGSA,A,3,31,24,06,23,16,03,05,09,13,,,,0.96,0.46,0.84,3*0B
$GNGSA,A,3,10,14,24,25,26,44,29,33,35,40,41,07,0.96,0.46,0.84,4*0F
$GNGSA,A,3,,,,,,,,,,,,,0.96,0.46,0.84,5'
s 308 '$GNGGA,172804.40,5539.10823,N,01234.50075,E,2,12,0.46,3.7,M,39.5,M,,*46
$GNGSA,A,3,10,12,13,14,15,23,17,22,24,19,02,,0.96,0.46,0.84,1*0A
$GNGSA,A,3,31,24,06,23,16,03,05,09,13,,,,0.96,0.46,0.84,3*0B
$GNGSA,A,3,10,14,24,25,26,44,29,33,35,40,41,07,0.96,0.46,0.84,4*0F
$GNGSA,A,3,,,,,,,,,,,,,0.96,0.46,0.84,5'
s 308 '$GNGGA,172804.50,5539.10823,N,01234.50075,E,2,12,0.46,3.7,M,39.5,M,,*47
$GNGSA,A,3,10,12,13,14,15,23,17,22,24,19,02,,0.96,0.46,0.84,1*0A
$GNGSA,A,3,31,24,06,23,16,03,05,09,13,,,,0.96,0.46,0.84,3*0B
$GNGSA,A,3,10,14,24,25,26,44,29,33,35,40,41,07,0.96,0.46,0.84,4*0F
$GNGSA,A,3,,,,,,,,,,,,,0.96,0.46,0.84,5'
s 308 '$GNGGA,172804.60,5539.10823,N,01234.50075,E,2,12,0.46,3.7,M,39.5,M,,*44
$GNGSA,A,3,10,12,13,14,15,23,17,22,24,19,02,,0.96,0.46,0.84,1*0A
$GNGSA,A,3,31,24,06,23,16,03,05,09,13,,,,0.96,0.46,0.84,3*0B
$GNGSA,A,3,10,14,24,25,26,44,29,33,35,40,41,07,0.96,0.46,0.84,4*0F
$GNGSA,A,3,,,,,,,,,,,,,0.96,0.46,0.84,5'
s 308 '$GNGGA,172804.70,5539.10822,N,01234.50074,E,2,12,0.46,3.7,M,39.5,M,,*45
$GNGSA,A,3,10,12,13,14,15,23,17,22,24,19,02,,0.96,0.46,0.84,1*0A
$GNGSA,A,3,31,24,06,23,16,03,05,09,13,,,,0.96,0.46,0.84,3*0B
$GNGSA,A,3,10,14,24,25,26,44,29,33,35,40,41,07,0.96,0.46,0.84,4*0F
$GNGSA,A,3,,,,,,,,,,,,,0.96,0.46,0.84,5'
s 308 '$GNGGA,172804.80,5539.10822,N,01234.50074,E,2,12,0.46,3.7,M,39.5,M,,*4A
$GNGSA,A,3,10,12,13,14,15,23,17,22,24,19,02,,0.96,0.46,0.84,1*0A
$GNGSA,A,3,31,24,06,23,16,03,05,09,13,,,,0.96,0.46,0.84,3*0B
$GNGSA,A,3,10,14,24,25,26,44,29,33,35,40,41,07,0.96,0.46,0.84,4*0F
$GNGSA,A,3,,,,,,,,,,,,,0.96,0.46,0.84,5'
s 308 '$GNGGA,172804.90,5539.10822,N,01234.50074,E,2,12,0.46,3.7,M,39.5,M,,*4B
$GNGSA,A,3,10,12,13,14,15,23,17,22,24,19,02,,0.96,0.46,0.84,1*0A
$GNGSA,A,3,31,24,06,23,16,03,05,09,13,,,,0.96,0.46,0.84,3*0B
$GNGSA,A,3,10,14,24,25,26,44,29,33,35,40,41,07,0.96,0.46,0.84,4*0F
$GNGSA,A,3,,,,,,,,,,,,,0.96,0.46,0.84,5'
MO RADIO
s 308 '$GNGGA,172805.00,5539.10822,N,01234.50074,E,2,12,0.46,3.7,M,39.5,M,,*43
$GNGSA,A,3,10,12,13,14,15,23,17,22,24,19,02,,0.96,0.46,0.84,1*0A
$GNGSA,A,3,31,24,06,23,16,03,05,09,13,,,,0.96,0.46,0.84,3*0B
$GNGSA,A,3,10,14,24,25,26,44,29,33,35,40,41,07,0.96,0.46,0.84,4*0F
$GNGSA,A,3,,,,,,,,,,,,,0.96,0.46,0.84,5'
s 308 '$GNGGA,172805.20,5539.10822,N,01234.50074,E,2,12,0.46,3.7,M,39.5,M,,*41
$GNGSA,A,3,10,12,13,14,15,23,17,22,24,19,02,,0.96,0.46,0.84,1*0A
$GNGSA,A,3,31,24,06,23,16,03,05,09,13,,,,0.96,0.46,0.84,3*0B
$GNGSA,A,3,10,14,24,25,26,44,29,33,35,40,41,07,0.96,0.46,0.84,4*0F
$GNGSA,A,3,,,,,,,,,,,,,0.96,0.46,0.84,5'
s 308 '$GNGGA,172805.30,5539.10822,N,01234.50073,E,2,12,0.46,3.7,M,39.5,M,,*47
$GNGSA,A,3,10,12,13,14,15,23,17,22,24,19,02,,0.96,0.46,0.84,1*0A
$GNGSA,A,3,31,24,06,23,16,03,05,09,13,,,,0.96,0.46,0.84,3*0B
$GNGSA,A,3,10,14,24,25,26,44,29,33,35,40,41,07,0.96,0.46,0.84,4*0F
$GNGSA,A,3,,,,,,,,,,,,,0.96,0.46,0.84,5'
s 308 '$GNGGA,172805.40,5539.10822,N,01234.50073,E,2,12,0.46,3.7,M,39.5,M,,*40
$GNGSA,A,3,10,12,13,14,15,23,17,22,24,19,02,,0.96,0.46,0.84,1*0A
$GNGSA,A,3,31,24,06,23,16,03,05,09,13,,,,0.96,0.46,0.84,3*0B
$GNGSA,A,3,10,14,24,25,26,44,29,33,35,40,41,07,0.96,0.46,0.84,4*0F
$GNGSA,A,3,,,,,,,,,,,,,0.96,0.46,0.84,5'
s 308 '$GNGGA,172805.50,5539.10822,N,01234.50073,E,2,12,0.46,3.7,M,39.5,M,,*41
$GNGSA,A,3,10,12,13,14,15,23,17,22,24,19,02,,0.96,0.46,0.84,1*0A
$GNGSA,A,3,31,24,06,23,16,03,05,09,13,,,,0.96,0.46,0.84,3*0B
$GNGSA,A,3,10,14,24,25,26,44,29,33,35,40,41,07,0.96,0.46,0.84,4*0F
$GNGSA,A,3,,,,,,,,,,,,,0.96,0.46,0.84,5'
s 308 '$GNGGA,172805.60,5539.10822,N,01234.50073,E,2,12,0.46,3.7,M,39.5,M,,*42
$GNGSA,A,3,10,12,13,14,15,23,17,22,24,19,02,,0.96,0.46,0.84,1*0A
$GNGSA,A,3,31,24,06,23,16,03,05,09,13,,,,0.96,0.46,0.84,3*0B
$GNGSA,A,3,10,14,24,25,26,44,29,33,35,40,41,07,0.96,0.46,0.84,4*0F
$GNGSA,A,3,,,,,,,,,,,,,0.96,0.46,0.84,5'
s 308 '$GNGGA,172805.70,5539.10822,N,01234.50072,E,2,12,0.46,3.7,M,39.5,M,,*42
$GNGSA,A,3,10,12,13,14,15,23,17,22,24,19,02,,0.96,0.46,0.84,1*0A
$GNGSA,A,3,31,24,06,23,16,03,05,09,13,,,,0.96,0.46,0.84,3*0B
$GNGSA,A,3,10,14,24,25,26,44,29,33,35,40,41,07,0.96,0.46,0.84,4*0F
$GNGSA,A,3,,,,,,,,,,,,,0.96,0.46,0.84,5'
s 308 '$GNGGA,172805.80,5539.10822,N,01234.50072,E,2,12,0.46,3.7,M,39.5,M,,*4D
$GNGSA,A,3,10,12,13,14,15,23,17,22,24,19,02,,0.96,0.46,0.84,1*0A
$GNGSA,A,3,31,24,06,23,16,03,05,09,13,,,,0.96,0.46,0.84,3*0B
$GNGSA,A,3,10,14,24,25,26,44,29,33,35,40,41,07,0.96,0.46,0.84,4*0F
$GNGSA,A,3,,,,,,,,,,,,,0.96,0.46,0.84,5'
s 308 '$GNGGA,172805.90,5539.10822,N,01234.50072,E,2,12,0.46,3.7,M,39.5,M,,*4C
$GNGSA,A,3,10,12,13,14,15,23,17,22,24,19,02,,0.96,0.46,0.84,1*0A
$GNGSA,A,3,31,24,06,23,16,03,05,09,13,,,,0.96,0.46,0.84,3*0B
$GNGSA,A,3,10,14,24,25,26,44,29,33,35,40,41,07,0.96,0.46,0.84,4*0F
$GNGSA,A,3,,,,,,,,,,,,,0.96,0.46,0.84,5'
s 308 '$GNGGA,172806.00,5539.10822,N,01234.50072,E,2,12,0.46,3.7,M,39.5,M,,*46
$GNGSA,A,3,10,12,13,14,15,23,17,22,24,19,02,,0.96,0.46,0.84,1*0A
$GNGSA,A,3,31,24,06,23,16,03,05,09,13,,,,0.96,0.46,0.84,3*0B
$GNGSA,A,3,10,14,24,25,26,44,29,33,35,40,41,07,0.96,0.46,0.84,4*0F
$GNGSA,A,3,,,,,,,,,,,,,0.96,0.46,0.84,5'
s 308 '$GNGGA,172806.20,5539.10822,N,01234.50071,E,2,12,0.46,3.7,M,39.5,M,,*47
$GNGSA,A,3,10,12,13,14,15,23,17,22,24,19,02,,0.96,0.46,0.84,1*0A
$GNGSA,A,3,31,24,06,23,16,03,05,09,13,,,,0.96,0.46,0.84,3*0B
$GNGSA,A,3,10,14,24,25,26,44,29,33,35,40,41,07,0.96,0.46,0.84,4*0F
$GNGSA,A,3,,,,,,,,,,,,,0.96,0.46,0.84,5'
s 308 '$GNGGA,172806.30,5539.10823,N,01234.50071,E,2,12,0.46,3.7,M,39.5,M,,*47
$GNGSA,A,3,10,12,13,14,15,23,17,22,24,19,02,,0.96,0.46,0.84,1*0A
$GNGSA,A,3,31,24,06,23,16,03,05,09,13,,,,0.96,0.46,0.84,3*0B
$GNGSA,A,3,10,14,24,25,26,44,29,33,35,40,41,07,0.96,0.46,0.84,4*0F
$GNGSA,A,3,,,,,,,,,,,,,0.96,0.46,0.84,5'
s 308 '$GNGGA,172806.40,5539.10822,N,01234.50070,E,2,12,0.46,3.7,M,39.5,M,,*40
$GNGSA,A,3,10,12,13,14,15,23,17,22,24,19,02,,0.96,0.46,0.84,1*0A
$GNGSA,A,3,31,24,06,23,16,03,05,09,13,,,,0.96,0.46,0.84,3*0B
$GNGSA,A,3,10,14,24,25,26,44,29,33,35,40,41,07,0.96,0.46,0.84,4*0F
$GNGSA,A,3,,,,,,,,,,,,,0.96,0.46,0.84,5'
MO RADIO
s 308 '$GNGGA,172806.50,5539.10822,N,01234.50068,E,2,12,0.46,3.6,M,39.5,M,,*49
$GNGSA,A,3,10,12,13,14,15,23,17,22,24,19,02,,0.96,0.46,0.84,1*0A
$GNGSA,A,3,31,24,06,23,16,03,05,09,13,,,,0.96,0.46,0.84,3*0B
$GNGSA,A,3,10,14,24,25,26,44,29,33,35,40,41,07,0.96,0.46,0.84,4*0F
$GNGSA,A,3,,,,,,,,,,,,,0.96,0.46,0.84,5'
s 308 '$GNGGA,172806.60,5539.10822,N,01234.50067,E,2,12,0.46,3.6,M,39.5,M,,*45
$GNGSA,A,3,10,12,13,14,15,23,17,22,24,19,02,,0.96,0.46,0.84,1*0A
$GNGSA,A,3,31,24,06,23,16,03,05,09,13,,,,0.96,0.46,0.84,3*0B
$GNGSA,A,3,10,14,24,25,26,44,29,33,35,40,41,07,0.96,0.46,0.84,4*0F
$GNGSA,A,3,,,,,,,,,,,,,0.96,0.46,0.84,5'
s 308 '$GNGGA,172806.70,5539.10822,N,01234.50067,E,2,12,0.46,3.6,M,39.5,M,,*44
$GNGSA,A,3,10,12,13,14,15,23,17,22,24,19,02,,0.96,0.46,0.84,1*0A
$GNGSA,A,3,31,24,06,23,16,03,05,09,13,,,,0.96,0.46,0.84,3*0B
$GNGSA,A,3,10,14,24,25,26,44,29,33,35,40,41,07,0.96,0.46,0.84,4*0F
$GNGSA,A,3,,,,,,,,,,,,,0.96,0.46,0.84,5'
s 308 '$GNGGA,172806.80,5539.10822,N,01234.50065,E,2,12,0.46,3.5,M,39.5,M,,*4A
$GNGSA,A,3,10,12,13,14,15,23,17,22,24,19,02,,0.96,0.46,0.84,1*0A
$GNGSA,A,3,31,24,06,23,16,03,05,09,13,,,,0.96,0.46,0.84,3*0B
$GNGSA,A,3,10,14,24,25,26,44,29,33,35,40,41,07,0.96,0.46,0.84,4*0F
$GNGSA,A,3,,,,,,,,,,,,,0.96,0.46,0.84,5'
s 308 '$GNGGA,172806.90,5539.10822,N,01234.50065,E,2,12,0.46,3.5,M,39.5,M,,*4B
$GNGSA,A,3,10,12,13,14,15,23,17,22,24,19,02,,0.96,0.46,0.84,1*0A
$GNGSA,A,3,31,24,06,23,16,03,05,09,13,,,,0.96,0.46,0.84,3*0B
$GNGSA,A,3,10,14,24,25,26,44,29,33,35,40,41,07,0.96,0.46,0.84,4*0F
$GNGSA,A,3,,,,,,,,,,,,,0.96,0.46,0.84,5'
s 308 '$GNGGA,172807.00,5539.10821,N,01234.50064,E,2,12,0.46,3.5,M,39.5,M,,*41
$GNGSA,A,3,10,12,13,14,15,23,17,22,24,19,02,,0.96,0.46,0.84,1*0A
$GNGSA,A,3,31,24,06,23,16,03,05,09,13,,,,0.96,0.46,0.84,3*0B
$GNGSA,A,3,10,14,24,25,26,44,29,33,35,40,41,07,0.96,0.46,0.84,4*0F
$GNGSA,A,3,,,,,,,,,,,,,0.96,0.46,0.84,5'
s 308 '$GNGGA,172807.20,5539.10822,N,01234.50063,E,2,12,0.46,3.5,M,39.5,M,,*47
$GNGSA,A,3,10,12,13,14,15,23,17,22,24,19,02,,0.96,0.46,0.84,1*0A
$GNGSA,A,3,31,24,06,23,16,03,05,09,13,,,,0.96,0.46,0.84,3*0B
$GNGSA,A,3,10,14,24,25,26,44,29,33,35,40,41,07,0.96,0.46,0.84,4*0F
$GNGSA,A,3,,,,,,,,,,,,,0.96,0.46,0.84,5'
s 308 '$GNGGA,172807.30,5539.10822,N,01234.50063,E,2,12,0.46,3.5,M,39.5,M,,*46
$GNGSA,A,3,10,12,13,14,15,23,17,22,24,19,02,,0.96,0.46,0.84,1*0A
$GNGSA,A,3,31,24,06,23,16,03,05,09,13,,,,0.96,0.46,0.84,3*0B
$GNGSA,A,3,10,14,24,25,26,44,29,33,35,40,41,07,0.96,0.46,0.84,4*0F
$GNGSA,A,3,,,,,,,,,,,,,0.96,0.46,0.84,5'
s 308 '$GNGGA,172807.40,5539.10822,N,01234.50063,E,2,12,0.46,3.5,M,39.5,M,,*41
$GNGSA,A,3,10,12,13,14,15,23,17,22,24,19,02,,0.96,0.46,0.84,1*0A
$GNGSA,A,3,31,24,06,23,16,03,05,09,13,,,,0.96,0.46,0.84,3*0B
$GNGSA,A,3,10,14,24,25,26,44,29,33,35,40,41,07,0.96,0.46,0.84,4*0F
$GNGSA,A,3,,,,,,,,,,,,,0.96,0.46,0.84,5'
s 308 '$GNGGA,172807.50,5539.10822,N,01234.50062,E,2,12,0.46,3.5,M,39.5,M,,*41
$GNGSA,A,3,10,12,13,14,15,23,17,22,24,19,02,,0.96,0.46,0.84,1*0A
$GNGSA,A,3,31,24,06,23,16,03,05,09,13,,,,0.96,0.46,0.84,3*0B
$GNGSA,A,3,10,14,24,25,26,44,29,33,35,40,41,07,0.96,0.46,0.84,4*0F
$GNGSA,A,3,,,,,,,,,,,,,0.96,0.46,0.84,5'
s 308 '$GNGGA,172807.60,5539.10822,N,01234.50062,E,2,12,0.46,3.5,M,39.5,M,,*42
$GNGSA,A,3,10,12,13,14,15,23,17,22,24,19,02,,0.96,0.46,0.84,1*0A
$GNGSA,A,3,31,24,06,23,16,03,05,09,13,,,,0.96,0.46,0.84,3*0B
$GNGSA,A,3,10,14,24,25,26,44,29,33,35,40,41,07,0.96,0.46,0.84,4*0F
$GNGSA,A,3,,,,,,,,,,,,,0.96,0.46,0.84,5'
s 308 '$GNGGA,172807.70,5539.10822,N,01234.50062,E,2,12,0.46,3.5,M,39.5,M,,*43
$GNGSA,A,3,10,12,13,14,15,23,17,22,24,19,02,,0.96,0.46,0.84,1*0A
$GNGSA,A,3,31,24,06,23,16,03,05,09,13,,,,0.96,0.46,0.84,3*0B
$GNGSA,A,3,10,14,24,25,26,44,29,33,35,40,41,07,0.96,0.46,0.84,4*0F
$GNGSA,A,3,,,,,,,,,,,,,0.96,0.46,0.84,5'
s 308 '$GNGGA,172807.80,5539.10823,N,01234.50061,E,2,12,0.46,3.5,M,39.5,M,,*4E
$GNGSA,A,3,10,12,13,14,15,23,17,22,24,19,02,,0.96,0.46,0.84,1*0A
$GNGSA,A,3,31,24,06,23,16,03,05,09,13,,,,0.96,0.46,0.84,3*0B
$GNGSA,A,3,10,14,24,25,26,44,29,33,35,40,41,07,0.96,0.46,0.84,4*0F
$GNGSA,A,3,,,,,,,,,,,,,0.96,0.46,0.84,5'
MO RADIO
s 308 '$GNGGA,172807.90,5539.10823,N,01234.50061,E,2,12,0.46,3.5,M,39.5,M,,*4F
$GNGSA,A,3,10,12,13,14,15,23,17,22,24,19,02,,0.96,0.46,0.84,1*0A
$GNGSA,A,3,31,24,06,23,16,03,05,09,13,,,,0.96,0.46,0.84,3*0B
$GNGSA,A,3,10,14,24,25,26,44,29,33,35,40,41,07,0.96,0.46,0.84,4*0F
$GNGSA,A,3,,,,,,,,,,,,,0.96,0.46,0.84,5'
s 3