17:29:51  $GNGGA,172951.00,5539.10754,N,01234.50210,E,1,12,0.47,1.3,M,39.5,M,,*49
17:29:51  $GNGSA,A,3,10,12,13,14,15,17,02,19,22,23,24,01,0.96,0.47,0.83,1*0D
17:29:51  $GNGSA,A,3,24,31,03,05,09,13,16,23,,,,,0.96,0.47,0.83,3*0B
17:29:51  $GNGSA,A,3,07,14,24,25,26,29,33,35,40,41,44,10,0.96,0.47,0.83,4*09
17:29:51  $GNGSA,A,3,,,,,,,,,,,,,0.96,0.47,0.83,5*02
17:29:51  $GNRMC,172951.20,A,5539.10754,N,01234.50210,E,0.019,,080925,,,A,V*1E
17:29:51  $GNGGA,172951.20,5539.10754,N,01234.50210,E,1,12,0.47,1.3,M,39.5,M,,*4B
17:29:51  $GNGSA,A,3,10,12,13,14,15,17,02,19,22,23,24,01,0.96,0.47,0.83,1*0D
17:29:51  $GNGSA,A,3,24,31,03,05,09,13,16,23,,,,,0.96,0.47,0.83,3*0B
17:29:51  $GNGSA,A,3,07,14,24,25,26,29,33,35,40,41,44,10,0.96,0.47,0.83,4*09
17:29:51  $GNGSA,A,3,,,,,,,,,,,,,0.96,0.47,0.83,5*02
17:29:51  $GNRMC,172951.40,A,5539.10754,N,01234.50210,E,0.017,,080925,,,A,V*16
17:29:51  $GNGGA,172951.40,5539.10754,N,01234.50210,E,1,12,0.48,1.3,M,39.5,M,,*42
17:29:51  $GNGSA,A,3,10,12,13,14,15,17,02,19,22,23,24,,0.98,0.48,0.86,1*08
17:29:51  $GNGSA,A,3,24,31,03,05,09,13,16,23,,,,,0.98,0.48,0.86,3*0F
17:29:51  $GNGSA,A,3,07,14,24,25,26,29,33,35,40,41,44,10,0.98,0.48,0.86,4*0D
17:29:51  $GNGSA,A,3,,,,,,,,,,,,,0.98,0.48,0.86,5*06
17:29:52  $GNRMC,172951.50,A,5539.10754,N,01234.50210,E,0.009,,080925,,,A,V*18
17:29:52  $GNGGA,172951.50,5539.10754,N,01234.50210,E,1,12,0.48,1.3,M,39.5,M,,*43
17:29:52  $GNGSA,A,3,10,12,13,14,15,17,02,19,22,23,24,,0.98,0.48,0.86,1*08
17:29:52  $GNGSA,A,3,24,31,03,05,09,13,16,23,,,,,0.98,0.48,0.86,3*0F
17:29:52  $GNGSA,A,3,07,14,24,25,26,29,33,35,40,41,44,10,0.98,0.48,0.86,4*0D
17:29:52  $GNGSA,A,3,,,,,,,,,,,,,0.98,0.48,0.86,5*06
17:29:52  $GNRMC,172951.60,A,5539.10754,N,01234.50210,E,0.008,,080925,,,A,V*1A
17:29:52  $GNGGA,172951.60,5539.10754,N,01234.50210,E,1,12,0.48,1.3,M,39.5,M,,*40
17:29:52  $GNGSA,A,3,10,12,13,14,15,17,02,19,22,23,24,,0.98,0.48,0.86,1*08
17:29:52  $GNGSA,A,3,24,31,03,05,09,13,16,23,,,,,0.98,0.48,0.86,3*0F
17:29:52  $GNGSA,A,3,07,14,24,25,26,29,33,35,40,41,44,10,0.98,0.48,0.86,4*0D
17:29:52  $GNGSA,A,3,,,,,,,,,,,,,0.98,0.48,0.86,5*06
17:29:52  $GNRMC,172951.70,A,5539.10753,N,01234.50210,E,0.019,,080925,,,A,V*1C
17:29:52  $GNGGA,172951.70,5539.10753,N,01234.50210,E,1,12,0.48,1.3,M,39.5,M,,*46
17:29:52  $GNGSA,A,3,10,12,13,14,15,17,02,19,22,23,24,,0.98,0.48,0.86,1*08
17:29:52  $GNGSA,A,3,24,31,03,05,09,13,16,23,,,,,0.98,0.48,0.86,3*0F
17:29:52  $GNGSA,A,3,07,14,24,25,26,29,33,35,40,41,44,10,0.98,0.48,0.86,4*0D
17:29:52  $GNGSA,A,3,,,,,,,,,,,,,0.98,0.48,0.86,5*06
17:29:52  $GNRMC,172951.80,A,5539.10753,N,01234.50210,E,0.015,,080925,,,A,V*1F
17:29:52  $GNGGA,172951.80,5539.10753,N,01234.50210,E,1,12,0.48,1.3,M,39.5,M,,*49
17:29:52  $GNGSA,A,3,10,12,13,14,15,17,02,19,22,23,24,,0.98,0.48,0.86,1*08
17:29:52  $GNGSA,A,3,24,31,03,05,09,13,16,23,,,,,0.98,0.48,0.86,3*0F
17:29:52  $GNGSA,A,3,07,14,24,25,26,29,33,35,40,41,44,10,0.98,0.48,0.86,4*0D
17:29:52  $GNGSA,A,3,,,,,,,,,,,,,0.98,0.48,0.86,5*06
17:29:52  $GNRMC,172951.90,A,5539.10753,N,01234.50210,E,0.022,,080925,,,A,V*1A
17:29:52  $GNGGA,172951.90,5539.10753,N,01234.50210,E,1,12,0.48,1.3,M,39.5,M,,*48
17:29:52  $GNGSA,A,3,10,12,13,14,15,17,02,19,22,23,24,,0.98,0.48,0.86,1*08
17:29:52  $GNGSA,A,3,24,31,03,05,09,13,16,23,,,,,0.98,0.48,0.86,3*0F
17:29:52  $GNGSA,A,3,07,14,24,25,26,29,33,35,40,41,44,10,0.98,0.48,0.86,4*0D
17:29:52  $GNGSA,A,3,,,,,,,,,,,,,0.98,0.48,0.86,5*06
17:29:52  $GNRMC,172952.00,A,5539.10753,N,01234.50210,E,0.025,,080925,,,A,V*17
17:29:52  $GNGGA,172952.00,5539.10753,N,01234.50210,E,1,12,0.48,1.3,M,39.5,M,,*42
17:29:52  $GNGSA,A,3,10,12,13,14,15,17,02,19,22,23,24,,0.98,0.48,0.86,1*08
17:29:52  $GNGSA,A,3,24,31,03,05,09,13,16,23,,,,,0.98,0.48,0.86,3*0F
17:29:52  $GNGSA,A,3,07,14,24,25,26,29,33,35,40,41,44,10,0.98,0.48,0.86,4*0D
17:29:52  $GNGSA,A,3,,,,,,,,,,,,,0.98,0.48,0.86,5*06
17:29:52  $GNRMC,172952.20,A,5539.10753,N,01234.50209,E,0.024,,080925,,,A,V*1C
17:29:52  $GNGGA,172952.20,5539.10753,N,01234.50209,E,1,12,0.48,1.3,M,39.5,M,,*48
17:29:52  $GNGSA,A,3,10,12,13,14,15,17,02,19,22,23,24,,0.98,0.48,0.86,1*08
17:29:52  $GNGSA,A,3,24,31,03,05,09,13,16,23,,,,,0.98,0.48,0.86,3*0F
17:29:52  $GNGSA,A,3,07,14,24,25,26,29,33,35,40,41,44,10,0.98,0.48,0.86,4*0D
17:29:52  $GNGSA,A,3,,,,,,,,,,,,,0.98,0.48,0.86,5*06
17:29:52  $GNRMC,172952.40,A,5539.10753,N,01234.50209,E,0.018,,080925,,,A,V*15
17:29:52  $GNGGA,172952.40,5539.10753,N,01234.50209,E,1,12,0.48,1.3,M,39.5,M,,*4E
17:29:52  $GNGSA,A,3,10,12,13,14,15,17,02,19,22,23,24,,0.98,0.48,0.86,1*08
17:29:52  $GNGSA,A,3,24,31,03,05,09,13,16,23,,,,,0.98,0.48,0.86,3*0F
17:29:52  $GNGSA,A,3,07,14,24,25,26,29,33,35,40,41,44,10,0.98,0.48,0.86,4*0D
17:29:52  $GNGSA,A,3,,,,,,,,,,,,,0.98,0.48,0.86,5*06
17:29:53  $GNRMC,172952.50,A,5539.10753,N,01234.50209,E,0.002,,080925,,,A,V*1F
17:29:53  $GNGGA,172952.50,5539.10753,N,01234.50209,E,1,12,0.48,1.3,M,39.5,M,,*4F
17:29:53  $GNGSA,A,3,10,12,13,14,15,17,02,19,22,23,24,,0.98,0.48,0.86,1*08
17:29:53  $GNGSA,A,3,24,31,03,05,09,13,16,23,,,,,0.98,0.48,0.86,3*0F
17:29:53  $GNGSA,A,3,07,14,24,25,26,29,33,35,40,41,44,10,0.98,0.48,0.86,4*0D
17:29:53  $GNGSA,A,3,,,,,,,,,,,,,0.98,0.48,0.86,5*06
17:29:53  $GNRMC,172952.70,A,5539.10753,N,01234.50209,E,0.003,,080925,,,A,V*1C
17:29:53  $GNGGA,172952.70,5539.10753,N,01234.50209,E,1,12,0.48,1.3,M,39.5,M,,*4D
17:29:53  $GNGSA,A,3,10,12,13,14,15,17,02,19,22,23,24,,0.98,0.48,0.86,1*08
17:29:53  $GNGSA,A,3,24,31,03,05,09,13,16,23,,,,,0.98,0.48,0.86,3*0F
17:29:53  $GNGSA,A,3,07,14,24,25,26,29,33,35,40,41,44,10,0.98,0.48,0.86,4*0D
17:29:53  $GNGSA,A,3,,,,,,,,,,,,,0.98,0.48,0.86,5*06
17:29:53  $GNRMC,172952.80,A,5539.10753,N,01234.50209,E,0.029,,080925,,,A,V*1B
17:29:53  $GNGGA,172952.80,5539.10753,N,01234.50209,E,1,12,0.48,1.3,M,39.5,M,,*42
17:29:53  $GNGSA,A,3,10,12,13,14,15,17,02,19,22,23,24,,0.98,0.48,0.86,1*08
17:29:53  $GNGSA,A,3,24,31,03,05,09,13,16,23,,,,,0.98,0.48,0.86,3*0F
17:29:53  $GNGSA,A,3,07,14,24,25,26,29,33,35,40,41,44,10,0.98,0.48,0.86,4*0D
17:29:53  $GNGSA,A,3,,,,,,,,,,,,,0.98,0.48,0.86,5*06
17:29:53  $GNRMC,172952.90,A,5539.10753,N,01234.50209,E,0.001,,080925,,,A,V*10
17:29:53  $GNGGA,172952.90,5539.10753,N,01234.50209,E,1,12,0.48,1.3,M,39.5,M,,*43
17:29:53  $GNGSA,A,3,10,12,13,14,15,17,02,19,22,23,24,,0.98,0.48,0.86,1*08
17:29:53  $GNGSA,A,3,24,31,03,05,09,13,16,23,,,,,0.98,0.48,0.86,3*0F
17:29:53  $GNGSA,A,3,07,14,24,25,26,29,33,35,40,41,44,10,0.98,0.48,0.86,4*0D
17:29:53  $GNGSA,A,3,,,,,,,,,,,,,0.98,0.48,0.86,5*06
17:29:53  $GNRMC,172953.00,A,5539.10753,N,01234.50209,E,0.008,,080925,,,A,V*11
17:29:53  $GNGGA,172953.00,5539.10753,N,01234.50209,E,1,12,0.48,1.3,M,39.5,M,,*4B
17:29:53  $GNGSA,A,3,10,12,13,14,15,17,02,19,22,23,24,,0.98,0.48,0.86,1*08
17:29:53  $GNGSA,A,3,24,31,03,05,09,13,16,23,,,,,0.98,0.48,0.86,3*0F
17:29:53  $GNGSA,A,3,07,14,24,25,26,29,33,35,40,41,44,10,0.98,0.48,0.86,4*0D
17:29:53  $GNGSA,A,3,,,,,,,,,,,,,0.98,0.48,0.86,5*06
17:29:53  $GNRMC,172953.20,A,5539.10753,N,01234.50209,E,0.009,,080925,,,A,V*12
17:29:53  $GNGGA,172953.20,5539.10753,N,01234.50209,E,1,12,0.48,1.3,M,39.5,M,,*49
17:29:53  $GNGSA,A,3,10,12,13,14,15,17,02,19,22,23,24,01,0.96,0.48,0.84,1*05
17:29:53  $GNGSA,A,3,24,31,03,05,09,13,16,,,,,,0.96,0.48,0.84,3*02
17:29:53  $GNGSA,A,3,07,14,24,25,26,29,33,35,40,41,44,10,0.96,0.48,0.84,4*01
17:29:53  $GNGSA,A,3,,,,,,,,,,,,,0.96,0.48,0.84,5*0A
17:29:53  $GNRMC,172953.30,A,5539.10753,N,01234.50209,E,0.003,,080925,,,A,V*19
17:29:53  $GNGGA,172953.30,5539.10753,N,01234.50209,E,1,12,0.48,1.3,M,39.5,M,,*48
17:29:53  $GNGSA,A,3,10,12,13,14,15,17,02,19,22,23,24,01,0.96,0.48,0.84,1*05
17:29:53  $GNGSA,A,3,24,31,03,05,09,13,16,,,,,,0.96,0.48,0.84,3*02
17:29:53  $GNGSA,A,3,07,14,24,25,26,29,33,35,40,41,44,10,0.96,0.48,0.84,4*01
17:29:53  $GNGSA,A,3,,,,,,,,,,,,,0.96,0.48,0.84,5*0A
17:29:53  $GNRMC,172953.40,A,5539.10753,N,01234.50209,E,0.028,,080925,,,A,V*17
17:29:53  $GNGGA,172953.40,5539.10753,N,01234.50209,E,1,12,0.48,1.3,M,39.5,M,,*4F
17:29:53  $GNGSA,A,3,10,12,13,14,15,17,02,19,22,23,24,01,0.96,0.48,0.84,1*05
17:29:53  $GNGSA,A,3,24,31,03,05,09,13,16,,,,,,0.96,0.48,0.84,3*02
17:29:53  $GNGSA,A,3,07,14,24,25,26,29,33,35,40,41,44,10,0.96,0.48,0.84,4*01
17:29:53  $GNGSA,A,3,,,,,,,,,,,,,0.96,0.48,0.84,5*0A
17:29:54  $GNRMC,172953.50,A,5539.10753,N,01234.50208,E,0.030,,080925,,,A,V*1E
17:29:54  $GNGGA,172953.50,5539.10753,N,01234.50208,E,1,12,0.48,1.3,M,39.5,M,,*4F
17:29:54  $GNGSA,A,3,10,12,13,14,15,17,02,19,22,23,24,01,0.96,0.48,0.84,1*05
17:29:54  $GNGSA,A,3,24,31,03,05,09,13,16,,,,,,0.96,0.48,0.84,3*02
17:29:54  $GNGSA,A,3,07,14,24,25,26,29,33,35,40,41,44,10,0.96,0.48,0.84,4*01
17:29:54  $GNGSA,A,3,,,,,,,,,,,,,0.96,0.48,0.84,5*0A
17:29:54  $GNRMC,172953.60,A,5539.10753,N,01234.50208,E,0.013,,080925,,,A,V*1C
17:29:54  $GNGGA,172953.60,5539.10753,N,01234.50208,E,1,12,0.48,1.3,M,39.5,M,,*4C
17:29:54  $GNGSA,A,3,10,12,13,14,15,17,02,19,22,23,24,01,0.96,0.48,0.84,1*05
17:29:54  $GNGSA,A,3,24,31,03,05,09,13,16,,,,,,0.96,0.48,0.84,3*02
17:29:54  $GNGSA,A,3,07,14,24,25,26,29,33,35,40,41,44,10,0.96,0.48,0.84,4*01
17:29:54  $GNGSA,A,3,,,,,,,,,,,,,0.96,0.48,0.84,5*0A
17:29:54  $GNRMC,172953.70,A,5539.10753,N,01234.50208,E,0.015,,080925,,,A,V*1B
17:29:54  $GNGGA,172953.70,5539.10753,N,01234.50208,E,1,12,0.48,1.3,M,39.5,M,,*4D
17:29:54  $GNGSA,A,3,10,12,13,14,15,17,02,19,22,23,24,01,0.96,0.48,0.84,1*05
17:29:54  $GNGSA,A,3,24,31,03,05,09,13,16,,,,,,0.96,0.48,0.84,3*02
17:29:54  $GNGSA,A,3,07,14,24,25,26,29,33,35,40,41,44,10,0.96,0.48,0.84,4*01
17:29:54  $GNGSA,A,3,,,,,,,,,,,,,0.96,0.48,0.84,5*0A
17:29:54  $GNRMC,172953.90,A,5539.10752,N,01234.50208,E,0.036,,080925,,,A,V*15
17:29:54  $GNGGA,172953.90,5539.10752,N,01234.50208,E,1,12,0.48,1.3,M,39.5,M,,*42
17:29:54  $GNGSA,A,3,10,12,13,14,15,17,02,19,22,23,24,01,0.96,0.48,0.84,1*05
17:29:54  $GNGSA,A,3,24,31,03,05,09,13,16,,,,,,0.96,0.48,0.84,3*02
17:29:54  $GNGSA,A,3,07,14,24,25,26,29,33,35,40,41,44,10,0.96,0.48,0.84,4*01
17:29:54  $GNGSA,A,3,,,,,,,,,,,,,0.96,0.48,0.84,5*0A
17:29:54  $GNRMC,172954.00,A,5539.10753,N,01234.50208,E,0.055,,080925,,,A,V*1F
17:29:54  $GNGGA,172954.00,5539.10753,N,01234.50208,E,1,12,0.48,1.3,M,39.5,M,,*4D
17:29:54  $GNGSA,A,3,10,12,13,14,15,17,02,19,22,23,24,01,0.96,0.48,0.84,1*05
17:29:54  $GNGSA,A,3,24,31,03,05,09,13,16,,,,,,0.96,0.48,0.84,3*02
17:29:54  $GNGSA,A,3,07,14,24,25,26,29,33,35,40,41,44,10,0.96,0.48,0.84,4*01
17:29:54  $GNGSA,A,3,,,,,,,,,,,,,0.96,0.48,0.84,5*0A
17:29:54  $GNRMC,172954.20,A,5539.10753,N,01234.50207,E,0.007,,080925,,,A,V*15
17:29:54  $GNGGA,172954.20,5539.10753,N,01234.50207,E,1,12,0.48,1.3,M,39.5,M,,*40
17:29:54  $GNGSA,A,3,10,12,13,14,15,17,02,19,22,23,24,01,0.96,0.48,0.84,1*05
17:29:54  $GNGSA,A,3,24,31,03,05,09,13,16,,,,,,0.96,0.48,0.84,3*02
17:29:54  $GNGSA,A,3,07,14,24,25,26,29,33,35,40,41,44,10,0.96,0.48,0.84,4*01
17:29:54  $GNGSA,A,3,,,,,,,,,,,,,0.96,0.48,0.84,5*0A
17:29:54  $GNRMC,172954.30,A,5539.10753,N,01234.50207,E,0.011,,080925,,,A,V*13
17:29:54  $GNGGA,172954.30,5539.10753,N,01234.50207,E,1,12,0.48,1.3,M,39.5,M,,*41
17:29:54  $GNGSA,A,3,10,12,13,14,15,17,02,19,22,23,24,01,0.96,0.48,0.84,1*05
17:29:54  $GNGSA,A,3,24,31,03,05,09,13,16,,,,,,0.96,0.48,0.84,3*02
17:29:54  $GNGSA,A,3,07,14,24,25,26,29,33,35,40,41,44,10,0.96,0.48,0.84,4*01
17:29:54  $GNGSA,A,3,,,,,,,,,,,,,0.96,0.48,0.84,5*0A
17:29:54  $GNRMC,172954.40,A,5539.10753,N,01234.50207,E,0.010,,080925,,,A,V*15
17:29:54  $GNGGA,172954.40,5539.10753,N,01234.50207,E,1,12,0.48,1.3,M,39.5,M,,*46
17:29:54  $GNGSA,A,3,10,12,13,14,15,17,02,19,22,23,24,01,0.96,0.48,0.84,1*05
17:29:54  $GNGSA,A,3,24,31,03,05,09,13,16,,,,,,0.96,0.48,0.84,3*02
17:29:54  $GNGSA,A,3,07,14,24,25,26,29,33,35,40,41,44,10,0.96,0.48,0.84,4*01
17:29:54  $GNGSA,A,3,,,,,,,,,,,,,0.96,0.48,0.84,5*0A
17:29:55  $GNRMC,172954.50,A,5539.10753,N,01234.50207,E,0.026,,080925,,,A,V*11
17:29:55  $GNGGA,172954.50,5539.10753,N,01234.50207,E,1,12,0.48,1.3,M,39.5,M,,*47
17:29:55  $GNGSA,A,3,10,12,13,14,15,17,02,19,22,23,24,01,0.96,0.48,0.84,1*05
17:29:55  $GNGSA,A,3,24,31,03,05,09,13,16,,,,,,0.96,0.48,0.84,3*02
17:29:55  $GNGSA,A,3,07,14,24,25,26,29,33,35,40,41,44,10,0.96,0.48,0.84,4*01
17:29:55  $GNGSA,A,3,,,,,,,,,,,,,0.96,0.48,0.84,5*0A
17:29:55  $GNRMC,172954.60,A,5539.10753,N,01234.50207,E,0.019,,080925,,,A,V*1E
17:29:55  $GNGGA,172954.60,5539.10753,N,01234.50207,E,1,12,0.47,1.3,M,39.5,M,,*4B
17:29:55  $GNGSA,A,3,10,12,13,14,15,17,02,19,22,23,24,01,0.96,0.47,0.83,1*0D
17:29:55  $GNGSA,A,3,24,31,03,05,23,09,13,16,,,,,0.96,0.47,0.83,3*0B
17:29:55  $GNGSA,A,3,07,14,24,25,26,29,33,35,40,41,44,10,0.96,0.47,0.83,4*09
17:29:55  $GNGSA,A,3,,,,,,,,,,,,,0.96,0.47,0.83,5*02
17:29:55  $GNRMC,172954.70,A,5539.10753,N,01234.50207,E,0.008,,080925,,,A,V*1F
17:29:55  $GNGGA,172954.70,5539.10753,N,01234.50207,E,1,12,0.47,1.3,M,39.5,M,,*4A
17:29:55  $GNGSA,A,3,10,12,13,14,15,17,02,19,22,23,24,01,0.96,0.47,0.83,1*0D
17:29:55  $GNGSA,A,3,24,31,03,05,23,09,13,16,,,,,0.96,0.47,0.83,3*0B
17:29:55  $GNGSA,A,3,07,14,24,25,26,29,33,35,40,41,44,10,0.96,0.47,0.83,4*09
17:29:55  $GNGSA,A,3,,,,,,,,,,,,,0.96,0.47,0.83,5*02
17:29:55  $GNRMC,172954.80,A,5539.10753,N,01234.50206,E,0.022,,080925,,,A,V*19
17:29:55  $GNGGA,172954.80,5539.10753,N,01234.50206,E,1,12,0.47,1.3,M,39.5,M,,*44
17:29:55  $GNGSA,A,3,10,12,13,14,15,17,02,19,22,23,24,01,0.96,0.47,0.83,1*0D
17:29:55  $GNGSA,A,3,24,31,03,05,23,09,13,16,,,,,0.96,0.47,0.83,3*0B
17:29:55  $GNGSA,A,3,07,14,24,25,26,29,33,35,40,41,44,10,0.96,0.47,0.83,4*09
17:29:55  $GNGSA,A,3,,,,,,,,,,,,,0.96,0.47,0.83,5*02
17:29:55  $GNRMC,172954.90,A,5539.10753,N,01234.50206,E,0.033,,080925,,,A,V*18
17:29:55  $GNGGA,172954.90,5539.10753,N,01234.50206,E,1,12,0.47,1.3,M,39.5,M,,*45
17:29:55  $GNGSA,A,3,10,12,13,14,15,17,02,19,22,23,24,01,0.96,0.47,0.83,1*0D
17:29:55  $GNGSA,A,3,24,31,03,05,23,09,13,16,,,,,0.96,0.47,0.83,3*0B
17:29:55  $GNGSA,A,3,07,14,24,25,26,29,33,35,40,41,44,10,0.96,0.47,0.83,4*09
17:29:55  $GNGSA,A,3,,,,,,,,,,,,,0.96,0.47,0.83,5*02
17:29:55  $GNRMC,172955.00,A,5539.10753,N,01234.50206,E,0.012,,080925,,,A,V*13
17:29:55  $GNGGA,172955.00,5539.10753,N,01234.50206,E,1,12,0.47,1.3,M,39.5,M,,*4D
17:29:55  $GNGSA,A,3,10,12,13,14,15,17,02,19,22,23,24,01,0.96,0.47,0.83,1*0D
17:29:55  $GNGSA,A,3,24,31,03,05,23,09,13,16,,,,,0.96,0.47,0.83,3*0B
17:29:55  $GNGSA,A,3,07,14,24,25,26,29,33,35,40,41,44,10,0.96,0.47,0.83,4*09
17:29:55  $GNGSA,A,3,,,,,,,,,,,,,0.96,0.47,0.83,5*02
17:29:55  $GNRMC,172955.20,A,5539.10753,N,01234.50206,E,0.015,,080925,,,A,V*16
17:29:55  $GNGGA,172955.20,5539.10753,N,01234.50206,E,1,12,0.47,1.3,M,39.5,M,,*4F
17:29:55  $GNGSA,A,3,10,12,13,14,15,17,02,19,22,23,24,01,0.96,0.47,0.83,1*0D
17:29:55  $GNGSA,A,3,24,31,03,05,23,09,13,16,,,,,0.96,0.47,0.83,3*0B
17:29:55  $GNGSA,A,3,07,14,24,25,26,29,33,35,40,41,44,10,0.96,0.47,0.83,4*09
17:29:55  $GNGSA,A,3,,,,,,,,,,,,,0.96,0.47,0.83,5*02
17:29:55  $GNRMC,172955.40,A,5539.10753,N,01234.50206,E,0.012,,080925,,,A,V*17
17:29:55  $GNGGA,172955.40,5539.10753,N,01234.50206,E,1,12,0.47,1.3,M,39.5,M,,*49
17:29:55  $GNGSA,A,3,10,12,13,14,15,17,02,19,22,23,24,01,0.96,0.47,0.83,1*0D
17:29:55  $GNGSA,A,3,24,31,03,05,23,09,13,16,,,,,0.96,0.47,0.83,3*0B
17:29:55  $GNGSA,A,3,07,14,24,25,26,29,33,35,40,41,44,10,0.96,0.47,0.83,4*09
17:29:55  $GNGSA,A,3,,,,,,,,,,,,,0.96,0.47,0.83,5*02
17:29:56  $GNRMC,172955.50,A,5539.10753,N,01234.50206,E,0.014,,080925,,,A,V*10
17:29:56  $GNGGA,172955.50,5539.10753,N,01234.50206,E,1,12,0.47,1.3,M,39.5,M,,*48
17:29:56  $GNGSA,A,3,10,12,13,14,15,17,02,19,22,23,24,01,0.96,0.47,0.83,1*0D
17:29:56  $GNGSA,A,3,24,31,03,05,23,09,13,16,,,,,0.96,0.47,0.83,3*0B
17:29:56  $GNGSA,A,3,07,14,24,25,26,29,33,35,40,41,44,10,0.96,0.47,0.83,4*09
17:29:56  $GNGSA,A,3,,,,,,,,,,,,,0.96,0.47,0.83,5*02
17:29:56  $GNRMC,172955.60,A,5539.10753,N,01234.50206,E,0.015,,080925,,,A,V*12
17:29:56  $GNGGA,172955.60,5539.10753,N,01234.50206,E,1,12,0.47,1.3,M,39.5,M,,*4B
17:29:56  $GNGSA,A,3,10,12,13,14,15,17,02,19,22,23,24,01,0.96,0.47,0.83,1*0D
17:29:56  $GNGSA,A,3,24,31,03,05,23,09,13,16,,,,,0.96,0.47,0.83,3*0B
17:29:56  $GNGSA,A,3,07,14,24,25,26,29,33,35,40,41,44,10,0.96,0.47,0.83,4*09
17:29:56  $GNGSA,A,3,,,,,,,,,,,,,0.96,0.47,0.83,5*02
17:29:56  $GNRMC,172955.70,A,5539.10753,N,01234.50206,E,0.013,,080925,,,A,V*15
17:29:56  $GNGGA,172955.70,5539.10753,N,01234.50206,E,1,12,0.47,1.3,M,39.5,M,,*4A
17:29:56  $GNGSA,A,3,10,12,13,14,15,17,02,19,22,23,24,01,0.96,0.47,0.83,1*0D
17:29:56  $GNGSA,A,3,24,31,03,05,23,09,13,16,,,,,0.96,0.47,0.83,3*0B
17:29:56  $GNGSA,A,3,07,14,24,25,26,29,33,35,40,41,44,10,0.96,0.47,0.83,4*09
17:29:56  $GNGSA,A,3,,,,,,,,,,,,,0.96,0.47,0.83,5*02
17:29:56  $GNRMC,172955.80,A,5539.10753,N,01234.50206,E,0.020,,080925,,,A,V*1A
17:29:56  $GNGGA,172955.80,5539.10753,N,01234.50206,E,1,12,0.47,1.3,M,39.5,M,,*45
17:29:56  $GNGSA,A,3,10,12,13,14,15,17,02,19,22,23,24,01,0.96,0.47,0.83,1*0D
17:29:56  $GNGSA,A,3,24,31,03,05,23,09,13,16,,,,,0.96,0.47,0.83,3*0B
17:29:56  $GNGSA,A,3,07,14,24,25,26,29,33,35,40,41,44,10,0.96,0.47,0.83,4*09
17:29:56  $GNGSA,A,3,,,,,,,,,,,,,0.96,0.47,0.83,5*02
17:29:56  $GNRMC,172955.90,A,5539.10753,N,01234.50206,E,0.005,,080925,,,A,V*1C
17:29:56  $GNGGA,172955.90,5539.10753,N,01234.50206,E,1,12,0.47,1.3,M,39.5,M,,*44
17:29:56  $GNGSA,A,3,10,12,13,14,15,17,02,19,22,23,24,01,0.96,0.47,0.83,1*0D
17:29:56  $GNGSA,A,3,24,31,03,05,23,09,13,16,,,,,0.96,0.47,0.83,3*0B
17:29:56  $GNGSA,A,3,07,14,24,25,26,29,33,35,40,41,44,10,0.96,0.47,0.83,4*09
17:29:56  $GNGSA,A,3,,,,,,,,,,,,,0.96,0.47,0.83,5*02
17:29:56  $GNRMC,172956.00,A,5539.10754,N,01234.50206,E,0.012,,080925,,,A,V*17
17:29:56  $GNGGA,172956.00,5539.10754,N,01234.50206,E,1,12,0.47,1.3,M,39.5,M,,*49
17:29:56  $GNGSA,A,3,10,12,13,14,15,17,02,19,22,23,24,01,0.96,0.47,0.83,1*0D
17:29:56  $GNGSA,A,3,24,31,03,05,23,09,13,16,,,,,0.96,0.47,0.83,3*0B
17:29:56  $GNGSA,A,3,07,14,24,25,26,29,33,35,40,41,44,10,0.96,0.47,0.83,4*09
17:29:56  $GNGSA,A,3,,,,,,,,,,,,,0.96,0.47,0.83,5*02
17:29:56  $GNRMC,172956.20,A,5539.10754,N,01234.50206,E,0.012,,080925,,,A,V*15
17:29:56  $GNGGA,172956.20,5539.10754,N,01234.50206,E,1,12,0.47,1.3,M,39.5,M,,*4B
17:29:56  $GNGSA,A,3,10,12,13,14,15,17,02,19,22,23,24,01,0.96,0.47,0.83,1*0D
17:29:56  $GNGSA,A,3,24,31,03,05,23,09,13,16,,,,,0.96,0.47,0.83,3*0B
17:29:56  $GNGSA,A,3,07,14,24,25,26,29,33,35,40,41,44,10,0.96,0.47,0.83,4*09
17:29:56  $GNGSA,A,3,,,,,,,,,,,,,0.96,0.47,0.83,5*02
17:29:56  $GNRMC,172956.40,A,5539.10754,N,01234.50206,E,0.022,,080925,,,A,V*10
17:29:56  $GNGGA,172956.40,5539.10754,N,01234.50206,E,1,12,0.47,1.3,M,39.5,M,,*4D
17:29:56  $GNGSA,A,3,10,12,13,14,15,17,02,19,22,23,24,01,0.96,0.47,0.83,1*0D
17:29:56  $GNGSA,A,3,24,31,03,05,23,09,13,16,,,,,0.96,0.47,0.83,3*0B
17:29:56  $GNGSA,A,3,07,14,24,25,26,29,33,35,40,41,44,10,0.96,0.47,0.83,4*09
17:29:56  $GNGSA,A,3,,,,,,,,,,,,,0.96,0.47,0.83,5*02
17:29:57  $GNRMC,172956.50,A,5539.10754,N,01234.50206,E,0.033,,080925,,,A,V*11
17:29:57  $GNGGA,172956.50,5539.10754,N,01234.50206,E,1,12,0.47,1.3,M,39.5,M,,*4C
17:29:57  $GNGSA,A,3,10,12,13,14,15,17,02,19,22,23,24,01,0.96,0.47,0.83,1*0D
17:29:57  $GNGSA,A,3,24,31,03,05,23,09,13,16,,,,,0.96,0.47,0.83,3*0B
17:29:57  $GNGSA,A,3,07,14,24,25,26,29,33,35,40,41,44,10,0.96,0.47,0.83,4*09
17:29:57  $GNGSA,A,3,,,,,,,,,,,,,0.96,0.47,0.83,5*02
17:29:57  $GNRMC,172956.70,A,5539.10754,N,01234.50206,E,0.014,,080925,,,A,V*16
17:29:57  $GNGGA,172956.70,5539.10754,N,01234.50206,E,1,12,0.47,1.3,M,39.5,M,,*4E
17:29:57  $GNGSA,A,3,10,12,13,14,15,17,02,19,22,23,24,01,0.96,0.47,0.83,1*0D
17:29:57  $GNGSA,A,3,24,31,03,05,23,09,13,16,,,,,0.96,0.47,0.83,3*0B
17:29:57  $GNGSA,A,3,07,14,24,25,26,29,33,35,40,41,44,10,0.96,0.47,0.83,4*09
17:29:57  $GNGSA,A,3,,,,,,,,,,,,,0.96,0.47,0.83,5*02
17:29:57  $GNRMC,172956.80,A,5539.10754,N,01234.50206,E,0.007,,080925,,,A,V*1B
17:29:57  $GNGGA,172956.80,5539.10754,N,01234.50206,E,1,12,0.47,1.3,M,39.5,M,,*41
17:29:57  $GNGSA,A,3,10,12,13,14,15,17,02,19,22,23,24,01,0.96,0.47,0.83,1*0D
17:29:57  $GNGSA,A,3,24,31,03,05,23,09,13,16,,,,,0.96,0.47,0.83,3*0B
17:29:57  $GNGSA,A,3,07,14,24,25,26,29,33,35,40,41,44,10,0.96,0.47,0.83,4*09
17:29:57  $GNGSA,A,3,,,,,,,,,,,,,0.96,0.47,0.83,5*02
17:29:57  $GNRMC,172956.90,A,5539.10754,N,01234.50206,E,0.019,,080925,,,A,V*15
17:29:57  $GNGGA,172956.90,5539.10754,N,01234.50206,E,1,12,0.47,1.3,M,39.5,M,,*40
17:29:57  $GNGSA,A,3,10,12,13,14,15,17,02,19,22,23,24,01,0.96,0.47,0.83,1*0D
17:29:57  $GNGSA,A,3,24,31,03,05,23,09,13,16,,,,,0.96,0.47,0.83,3*0B
17:29:57  $GNGSA,A,3,07,14,24,25,26,29,33,35,40,41,44,10,0.96,0.47,0.83,4*09
17:29:57  $GNGSA,A,3,,,,,,,,,,,,,0.96,0.47,0.83,5*02
17:29:57  $GNRMC,172957.00,A,5539.10754,N,01234.50206,E,0.025,,080925,,,A,V*12
17:29:57  $GNGGA,172957.00,5539.10754,N,01234.50206,E,1,12,0.47,1.3,M,39.5,M,,*48
17:29:57  $GNGSA,A,3,10,12,13,14,15,17,02,19,22,23,24,01,0.96,0.47,0.83,1*0D
17:29:57  $GNGSA,A,3,24,31,03,05,23,09,13,16,,,,,0.96,0.47,0.83,3*0B
17:29:57  $GNGSA,A,3,07,14,24,25,26,29,33,35,40,41,44,10,0.96,0.47,0.83,4*09
17:29:57  $GNGSA,A,3,,,,,,,,,,,,,0.96,0.47,0.83,5*02
17:29:57  $GNRMC,172957.20,A,5539.10754,N,01234.50206,E,0.017,,080925,,,A,V*11
17:29:57  $GNGGA,172957.20,5539.10754,N,01234.50206,E,1,12,0.47,1.3,M,39.5,M,,*4A
17:29:57  $GNGSA,A,3,10,12,13,14,15,17,02,19,22,23,24,01,0.96,0.47,0.83,1*0D
17:29:57  $GNGSA,A,3,24,31,03,05,23,09,13,16,,,,,0.96,0.47,0.83,3*0B
17:29:57  $GNGSA,A,3,07,14,24,25,26,29,33,35,40,41,44,10,0.96,0.47,0.83,4*09
17:29:57  $GNGSA,A,3,,,,,,,,,,,,,0.96,0.47,0.83,5*02
17:29:57  $GNRMC,172957.30,A,5539.10754,N,01234.50206,E,0.023,,080925,,,A,V*17
17:29:57  $GNGGA,172957.30,5539.10754,N,01234.50206,E,1,12,0.47,1.3,M,39.5,M,,*4B
17:29:57  $GNGSA,A,3,10,12,13,14,15,17,02,19,22,23,24,01,0.96,0.47,0.83,1*0D
17:29:57  $GNGSA,A,3,24,31,03,05,23,09,13,16,,,,,0.96,0.47,0.83,3*0B
17:29:57  $GNGSA,A,3,07,14,24,25,26,29,33,35,40,41,44,10,0.96,0.47,0.83,4*09
17:29:57  $GNGSA,A,3,,,,,,,,,,,,,0.96,0.47,0.83,5*02
17:29:57  $GNRMC,172957.40,A,5539.10754,N,01234.50206,E,0.011,,080925,,,A,V*11
17:29:57  $GNGGA,172957.40,5539.10754,N,01234.50206,E,1,12,0.47,1.3,M,39.5,M,,*4C
17:29:57  $GNGSA,A,3,10,12,13,14,15,17,02,19,22,23,24,01,0.96,0.47,0.83,1*0D
17:29:57  $GNGSA,A,3,24,31,03,05,23,09,13,16,,,,,0.96,0.47,0.83,3*0B
17:29:57  $GNGSA,A,3,07,14,24,25,26,29,33,35,40,41,44,10,0.96,0.47,0.83,4*09
17:29:57  $GNGSA,A,3,,,,,,,,,,,,,0.96,0.47,0.83,5*02
17:29:58  $GNRMC,172957.50,A,5539.10754,N,01234.50206,E,0.015,,080925,,,A,V*14
17:29:58  $GNGGA,172957.50,5539.10754,N,01234.50206,E,1,12,0.47,1.3,M,39.5,M,,*4D
17:29:58  $GNGSA,A,3,10,12,13,14,15,17,02,19,22,23,24,01,0.96,0.47,0.83,1*0D
17:29:58  $GNGSA,A,3,24,31,03,05,23,09,13,16,,,,,0.96,0.47,0.83,3*0B
17:29:58  $GNGSA,A,3,07,14,24,25,26,29,33,35,40,41,44,10,0.96,0.47,0.83,4*09
17:29:58  $GNGSA,A,3,,,,,,,,,,,,,0.96,0.47,0.83,5*02
17:29:58  $GNRMC,172957.60,A,5539.10754,N,01234.50206,E,0.018,,080925,,,A,V*1A
17:29:58  $GNGGA,172957.60,5539.10754,N,01234.50206,E,1,12,0.47,1.3,M,39.5,M,,*4E
17:29:58  $GNGSA,A,3,10,12,13,14,15,17,02,19,22,23,24,01,0.96,0.47,0.83,1*0D
17:29:58  $GNGSA,A,3,24,31,03,05,23,09,13,16,,,,,0.96,0.47,0.83,3*0B
17:29:58  $GNGSA,A,3,07,14,24,25,26,29,33,35,40,41,44,10,0.96,0.47,0.83,4*09
17:29:58  $GNGSA,A,3,,,,,,,,,,,,,0.96,0.47,0.83,5*02
17:29:58  $GNRMC,172957.80,A,5539.10754,N,01234.50206,E,0.006,,080925,,,A,V*1B
17:29:58  $GNGGA,172957.80,5539.10754,N,01234.50206,E,1,12,0.47,1.3,M,39.5,M,,*40
17:29:58  $GNGSA,A,3,10,12,13,14,15,17,02,19,22,23,24,01,0.96,0.47,0.83,1*0D
17:29:58  $GNGSA,A,3,24,31,03,05,23,09,13,16,,,,,0.96,0.47,0.83,3*0B
17:29:58  $GNGSA,A,3,07,14,24,25,26,29,33,35,40,41,44,10,0.96,0.47,0.83,4*09
17:29:58  $GNGSA,A,3,,,,,,,,,,,,,0.96,0.47,0.83,5*02
17:29:58  $GNRMC,172957.90,A,5539.10754,N,01234.50206,E,0.019,,080925,,,A,V*14
17:29:58  $GNGGA,172957.90,5539.10754,N,01234.50206,E,1,12,0.47,1.3,M,39.5,M,,*41
17:29:58  $GNGSA,A,3,10,12,13,14,15,17,02,19,22,23,24,01,0.96,0.47,0.83,1*0D
17:29:58  $GNGSA,A,3,24,31,03,05,23,09,13,16,,,,,0.96,0.47,0.83,3*0B
17:29:58  $GNGSA,A,3,07,14,24,25,26,29,33,35,40,41,44,10,0.96,0.47,0.83,4*09
17:29:58  $GNGSA,A,3,,,,,,,,,,,,,0.96,0.47,0.83,5*02
17:29:58  $GNRMC,172958.00,A,5539.10755,N,01234.50206,E,0.032,,080925,,,A,V*1A
17:29:58  $GNGGA,172958.00,5539.10755,N,01234.50206,E,1,12,0.47,1.3,M,39.5,M,,*46
17:29:58  $GNGSA,A,3,10,12,13,14,15,17,02,19,22,23,24,01,0.96,0.47,0.83,1*0D
17:29:58  $GNGSA,A,3,24,31,03,05,23,09,13,16,,,,,0.96,0.47,0.83,3*0B
17:29:58  $GNGSA,A,3,07,14,24,25,26,29,33,35,40,41,44,10,0.96,0.47,0.83,4*09
17:29:58  $GNGSA,A,3,,,,,,,,,,,,,0.96,0.47,0.83,5*02
17:29:58  $GNRMC,172958.20,A,5539.10755,N,01234.50206,E,0.026,,080925,,,A,V*1D
17:29:58  $GNGGA,172958.20,5539.10755,N,01234.50206,E,1,12,0.47,1.3,M,39.5,M,,*44
17:29:58  $GNGSA,A,3,10,12,13,14,15,17,02,19,22,23,24,01,0.96,0.47,0.83,1*0D
17:29:58  $GNGSA,A,3,24,31,03,05,23,09,13,16,,,,,0.96,0.47,0.83,3*0B
17:29:58  $GNGSA,A,3,07,14,24,25,26,29,33,35,40,41,44,10,0.96,0.47,0.83,4*09
17:29:58  $GNGSA,A,3,,,,,,,,,,,,,0.96,0.47,0.83,5*02
17:29:58  $GNRMC,172958.30,A,5539.10755,N,01234.50206,E,0.027,,080925,,,A,V*1D
17:29:58  $GNGGA,172958.30,5539.10755,N,01234.50206,E,1,12,0.47,1.3,M,39.5,M,,*45
17:29:58  $GNGSA,A,3,10,12,13,14,15,17,02,19,22,23,24,01,0.96,0.47,0.83,1*0D
17:29:58  $GNGSA,A,3,24,31,03,05,23,09,13,16,,,,,0.96,0.47,0.83,3*0B
17:29:58  $GNGSA,A,3,07,14,24,25,26,29,33,35,40,41,44,10,0.96,0.47,0.83,4*09
17:29:58  $GNGSA,A,3,,,,,,,,,,,,,0.96,0.47,0.83,5*02
17:29:58  $GNRMC,172958.40,A,5539.10755,N,01234.50206,E,0.030,,080925,,,A,V*1C
17:29:58  $GNGGA,172958.40,5539.10755,N,01234.50206,E,1,12,0.47,1.3,M,39.5,M,,*42
17:29:58  $GNGSA,A,3,10,12,13,14,15,17,02,19,22,23,24,01,0.96,0.47,0.83,1*0D
17:29:58  $GNGSA,A,3,24,31,03,05,23,09,13,16,,,,,0.96,0.47,0.83,3*0B
17:29:58  $GNGSA,A,3,07,14,24,25,26,29,33,35,40,41,44,10,0.96,0.47,0.83,4*09
17:29:58  $GNGSA,A,3,,,,,,,,,,,,,0.96,0.47,0.83,5*02
17:29:59  $GNRMC,172958.50,A,5539.10755,N,01234.50206,E,0.022,,080925,,,A,V*1E
17:29:59  $GNGGA,172958.50,5539.10755,N,01234.50206,E,1,12,0.47,1.3,M,39.5,M,,*43
17:29:59  $GNGSA,A,3,10,12,13,14,15,17,02,19,22,23,24,01,0.96,0.47,0.83,1*0D
17:29:59  $GNGSA,A,3,24,31,03,05,23,09,13,16,,,,,0.96,0.47,0.83,3*0B
17:29:59  $GNGSA,A,3,07,14,24,25,26,29,33,35,40,41,44,10,0.96,0.47,0.83,4*09
17:29:59  $GNGSA,A,3,,,,,,,,,,,,,0.96,0.47,0.83,5*02
17:29:59  $GNRMC,172958.60,A,5539.10755,N,01234.50205,E,0.044,,080925,,,A,V*1E
17:29:59  $GNGGA,172958.60,5539.10755,N,01234.50205,E,1,12,0.47,1.3,M,39.5,M,,*43
17:29:59  $GNGSA,A,3,10,12,13,14,15,17,02,19,22,23,24,01,0.96,0.47,0.83,1*0D
17:29:59  $GNGSA,A,3,24,31,03,05,23,09,13,16,,,,,0.96,0.47,0.83,3*0B
17:29:59  $GNGSA,A,3,07,14,24,25,26,29,33,35,40,41,44,10,0.96,0.47,0.83,4*09
17:29:59  $GNGSA,A,3,,,,,,,,,,,,,0.96,0.47,0.83,5*02
17:29:59  $GNRMC,172958.70,A,5539.10755,N,01234.50206,E,0.026,,080925,,,A,V*18
17:29:59  $GNGGA,172958.70,5539.10755,N,01234.50206,E,1,12,0.47,1.3,M,39.5,M,,*41
17:29:59  $GNGSA,A,3,10,12,13,14,15,17,02,19,22,23,24,01,0.96,0.47,0.83,1*0D
17:29:59  $GNGSA,A,3,24,31,03,05,23,09,13,16,,,,,0.96,0.47,0.83,3*0B
17:29:59  $GNGSA,A,3,07,14,24,25,26,29,33,35,40,41,44,10,0.96,0.47,0.83,4*09
17:29:59  $GNGSA,A,3,,,,,,,,,,,,,0.96,0.47,0.83,5*02
17:29:59  $GNRMC,172958.80,A,5539.10755,N,01234.50206,E,0.006,,080925,,,A,V*15
17:29:59  $GNGGA,172958.80,5539.10755,N,01234.50206,E,1,12,0.47,1.3,M,39.5,M,,*4E
17:29:59  $GNGSA,A,3,10,12,13,14,15,17,02,19,22,23,24,01,0.96,0.47,0.83,1*0D
17:29:59  $GNGSA,A,3,24,31,03,05,23,09,13,16,,,,,0.96,0.47,0.83,3*0B
17:29:59  $GNGSA,A,3,07,14,24,25,26,29,33,35,40,41,44,10,0.96,0.47,0.83,4*09
17:29:59  $GNGSA,A,3,,,,,,,,,,,,,0.96,0.47,0.83,5*02
17:29:59  $GNRMC,172958.90,A,5539.10755,N,01234.50205,E,0.008,,080925,,,A,V*19
17:29:59  $GNGGA,172958.90,5539.10755,N,01234.50205,E,1,12,0.47,1.3,M,39.5,M,,*4C
17:29:59  $GNGSA,A,3,10,12,13,14,15,17,02,19,22,23,24,01,0.96,0.47,0.83,1*0D
17:29:59  $GNGSA,A,3,24,31,03,05,23,09,13,16,,,,,0.96,0.47,0.83,3*0B
17:29:59  $GNGSA,A,3,07,14,24,25,26,29,33,35,40,41,44,10,0.96,0.47,0.83,4*09
17:29:59  $GNGSA,A,3,,,,,,,,,,,,,0.96,0.47,0.83,5*02
17:29:59  $GNRMC,172959.00,A,5539.10755,N,01234.50205,E,0.003,,080925,,,A,V*1A
17:29:59  $GNGGA,172959.00,5539.10755,N,01234.50205,E,1,12,0.47,1.3,M,39.5,M,,*44
17:29:59  $GNGSA,A,3,10,12,13,14,15,17,02,19,22,23,24,01,0.96,0.47,0.83,1*0D
17:29:59  $GNGSA,A,3,24,31,03,05,23,09,13,16,,,,,0.96,0.47,0.83,3*0B
17:29:59  $GNGSA,A,3,07,14,24,25,26,29,33,35,40,41,44,10,0.96,0.47,0.83,4*09
17:29:59  $GNGSA,A,3,,,,,,,,,,,,,0.96,0.47,0.83,5*02
17:29:59  $GNRMC,172959.20,A,5539.10755,N,01234.50205,E,0.006,,080925,,,A,V*1D
17:29:59  $GNGGA,172959.20,5539.10755,N,01234.50205,E,1,12,0.47,1.3,M,39.5,M,,*46
17:29:59  $GNGSA,A,3,10,12,13,14,15,17,02,19,22,23,24,01,0.96,0.47,0.83,1*0D
17:29:59  $GNGSA,A,3,24,31,03,05,23,09,13,16,,,,,0.96,0.47,0.83,3*0B
17:29:59  $GNGSA,A,3,07,14,24,25,26,29,33,35,40,41,44,10,0.96,0.47,0.83,4*09
17:29:59  $GNGSA,A,3,,,,,,,,,,,,,0.96,0.47,0.83,5*02
17:29:59  $GNRMC,172959.30,A,5539.10755,N,01234.50205,E,0.004,,080925,,,A,V*1E
17:29:59  $GNGGA,172959.30,5539.10755,N,01234.50205,E,1,12,0.47,1.3,M,39.5,M,,*47
17:29:59  $GNGSA,A,3,10,12,13,14,15,17,02,19,22,23,24,01,0.96,0.47,0.83,1*0D
17:29:59  $GNGSA,A,3,24,31,03,05,23,09,13,16,,,,,0.96,0.47,0.83,3*0B
17:29:59  $GNGSA,A,3,07,14,24,25,26,29,33,35,40,41,44,10,0.96,0.47,0.83,4*09
17:29:59  $GNGSA,A,3,,,,,,,,,,,,,0.96,0.47,0.83,5*02
17:29:59  $GNRMC,172959.40,A,5539.10755,N,01234.50205,E,0.015,,080925,,,A,V*19
17:29:59  $GNGGA,172959.40,5539.10755,N,01234.50205,E,1,12,0.47,1.3,M,39.5,M,,*40
17:29:59  $GNGSA,A,3,10,12,13,14,15,17,02,19,22,23,24,01,0.96,0.47,0.83,1*0D
17:29:59  $GNGSA,A,3,24,31,03,05,23,09,13,16,,,,,0.96,0.47,0.83,3*0B
17:29:59  $GNGSA,A,3,07,14,24,25,26,29,33,35,40,41,44,10,0.96,0.47,0.83,4*09
17:29:59  $GNGSA,A,3,,,,,,,,,,,,,0.96,0.47,0.83,5*02
17:30:00  $GNRMC,172959.50,A,5539.10755,N,01234.50205,E,0.008,,080925,,,A,V*14
17:30:00  $GNGGA,172959.50,5539.10755,N,01234.50205,E,1,12,0.47,1.3,M,39.5,M,,*41
17:30:00  $GNGSA,A,3,10,12,13,14,15,17,02,19,22,23,24,01,0.96,0.47,0.83,1*0D
17:30:00  $GNGSA,A,3,24,31,03,05,23,09,13,16,,,,,0.96,0.47,0.83,3*0B
17:30:00  $GNGSA,A,3,07,14,24,25,26,29,33,35,40,41,44,10,0.96,0.47,0.83,4*09
17:30:00  $GNGSA,A,3,,,,,,,,,,,,,0.96,0.47,0.83,5*02
17:30:00  $GNRMC,172959.60,A,5539.10755,N,01234.50205,E,0.011,,080925,,,A,V*1F
17:30:00  $GNGGA,172959.60,5539.10755,N,01234.50205,E,1,12,0.47,1.3,M,39.5,M,,*42
17:30:00  $GNGSA,A,3,10,12,13,14,15,17,02,19,22,23,24,01,0.96,0.47,0.83,1*0D
17:30:00  $GNGSA,A,3,24,31,03,05,23,09,13,16,,,,,0.96,0.47,0.83,3*0B
17:30:00  $GNGSA,A,3,07,14,24,25,26,29,33,35,40,41,44,10,0.96,0.47,0.83,4*09
17:30:00  $GNGSA,A,3,,,,,,,,,,,,,0.96,0.47,0.83,5*02
17:30:00  $GNRMC,172959.70,A,5539.10755,N,01234.50205,E,0.022,,080925,,,A,V*1E
17:30:00  $GNGGA,172959.70,5539.10755,N,01234.50205,E,1,12,0.47,1.3,M,39.5,M,,*43
17:30:00  $GNGSA,A,3,10,12,13,14,15,17,02,19,22,23,24,01,0.96,0.47,0.83,1*0D
17:30:00  $GNGSA,A,3,24,31,03,05,23,09,13,16,,,,,0.96,0.47,0.83,3*0B
17:30:00  $GNGSA,A,3,07,14,24,25,26,29,33,35,40,41,44,10,0.96,0.47,0.83,4*09
17:30:00  $GNGSA,A,3,,,,,,,,,,,,,0.96,0.47,0.83,5*02
17:30:00  $GNRMC,172959.80,A,5539.10755,N,01234.50205,E,0.013,,080925,,,A,V*13
17:30:00  $GNGGA,172959.80,5539.10755,N,01234.50205,E,1,12,0.47,1.3,M,39.5,M,,*4C
17:30:00  $GNGSA,A,3,10,12,13,14,15,17,02,19,22,23,24,01,0.96,0.47,0.83,1*0D
17:30:00  $GNGSA,A,3,24,31,03,05,23,09,13,16,,,,,0.96,0.47,0.83,3*0B
17:30:00  $GNGSA,A,3,07,14,24,25,26,29,33,35,40,41,44,10,0.96,0.47,0.83,4*09
17:30:00  $GNGSA,A,3,,,,,,,,,,,,,0.96,0.47,0.83,5*02
17:30:00  $GNRMC,172959.90,A,5539.10755,N,01234.50205,E,0.023,,080925,,,A,V*11
17:30:00  $GNGGA,172959.90,5539.10755,N,01234.50205,E,1,12,0.47,1.3,M,39.5,M,,*4D
17:30:00  $GNGSA,A,3,10,12,13,14,15,17,02,19,22,23,24,01,0.96,0.47,0.83,1*0D
17:30:00  $GNGSA,A,3,24,31,03,05,23,09,13,16,,,,,0.96,0.47,0.83,3*0B
17:30:00  $GNGSA,A,3,07,14,24,25,26,29,33,35,40,41,44,10,0.96,0.47,0.83,4*09
17:30:00  $GNGSA,A,3,,,,,,,,,,,,,0.96,0.47,0.83,5*02
17:30:00  $GNRMC,173000.00,A,5539.10755,N,01234.50205,E,0.021,,080925,,,A,V*1E
17:30:00  $GNGGA,173000.00,5539.10755,N,01234.50205,E,1,12,0.47,1.3,M,39.5,M,,*40
17:30:00  $GNGSA,A,3,10,12,13,14,15,17,02,19,22,23,24,01,0.96,0.47,0.83,1*0D
17:30:00  $GNGSA,A,3,24,31,03,05,23,09,13,16,,,,,0.96,0.47,0.83,3*0B
17:30:00  $GNGSA,A,3,07,14,24,25,26,29,33,35,40,41,44,10,0.96,0.47,0.83,4*09
17:30:00  $GNGSA,A,3,,,,,,,,,,,,,0.96,0.47,0.83,5*02
17:30:00  $GNRMC,173000.20,A,5539.10755,N,01234.50205,E,0.022,,080925,,,A,V*1F
17:30:00  $GNGGA,173000.20,5539.10755,N,01234.50205,E,1,12,0.47,1.3,M,39.5,M,,*42
17:30:00  $GNGSA,A,3,10,12,13,14,15,17,02,19,22,23,24,01,0.96,0.47,0.83,1*0D
17:30:00  $GNGSA,A,3,24,31,03,05,23,09,13,16,,,,,0.96,0.47,0.83,3*0B
17:30:00  $GNGSA,A,3,07,14,24,25,26,29,33,35,40,41,44,10,0.96,0.47,0.83,4*09
17:30:00  $GNGSA,A,3,,,,,,,,,,,,,0.96,0.47,0.83,5*02
17:30:00  $GNRMC,173000.30,A,5539.10756,N,01234.50205,E,0.015,,080925,,,A,V*19
17:30:00  $GNGGA,173000.30,5539.10756,N,01234.50205,E,1,12,0.47,1.3,M,39.5,M,,*40
17:30:00  $GNGSA,A,3,10,12,13,14,15,17,02,19,22,23,24,01,0.96,0.47,0.83,1*0D
17:30:00  $GNGSA,A,3,24,31,03,05,23,09,13,16,,,,,0.96,0.47,0.83,3*0B
17:30:00  $GNGSA,A,3,07,14,24,25,26,29,33,35,40,41,44,10,0.96,0.47,0.83,4*09
17:30:00  $GNGSA,A,3,,,,,,,,,,,,,0.96,0.47,0.83,5*02
17:30:00  $GNRMC,173000.40,A,5539.10756,N,01234.50204,E,0.028,,080925,,,A,V*11
17:30:00  $GNGGA,173000.40,5539.10756,N,01234.50204,E,1,12,0.47,1.3,M,39.5,M,,*46
17:30:00  $GNGSA,A,3,10,12,13,14,15,17,02,19,22,23,24,01,0.96,0.47,0.83,1*0D
17:30:00  $GNGSA,A,3,24,31,03,05,23,09,13,16,,,,,0.96,0.47,0.83,3*0B
17:30:00  $GNGSA,A,3,07,14,24,25,26,29,33,35,40,41,44,10,0.96,0.47,0.83,4*09
17:30:00  $GNGSA,A,3,,,,,,,,,,,,,0.96,0.47,0.83,5*02
17:30:01  $GNRMC,173000.60,A,5539.10756,N,01234.50204,E,0.022,,080925,,,A,V*19
17:30:01  $GNGGA,173000.60,5539.10756,N,01234.50204,E,1,12,0.47,1.3,M,39.5,M,,*44
17:30:01  $GNGSA,A,3,10,12,13,14,15,17,02,19,22,23,24,01,0.96,0.47,0.83,1*0D
17:30:01  $GNGSA,A,3,24,31,03,05,23,09,13,16,,,,,0.96,0.47,0.83,3*0B
17:30:01  $GNGSA,A,3,07,14,24,25,26,29,33,35,40,41,44,10,0.96,0.47,0.83,4*09
17:30:01  $GNGSA,A,3,,,,,,,,,,,,,0.96,0.47,0.83,5*02
17:30:01  $GNRMC,173000.70,A,5539.10756,N,01234.50204,E,0.018,,080925,,,A,V*11
17:30:01  $GNGGA,173000.70,5539.10756,N,01234.50204,E,1,12,0.47,1.3,M,39.5,M,,*45
17:30:01  $GNGSA,A,3,10,12,13,14,15,17,02,19,22,23,24,01,0.96,0.47,0.83,1*0D
17:30:01  $GNGSA,A,3,24,31,03,05,23,09,13,16,,,,,0.96,0.47,0.83,3*0B
17:30:01  $GNGSA,A,3,07,14,24,25,26,29,33,35,40,41,44,10,0.96,0.47,0.83,4*09
17:30:01  $GNGSA,A,3,,,,,,,,,,,,,0.96,0.47,0.83,5*02
17:30:01  $GNRMC,173000.80,A,5539.10756,N,01234.50204,E,0.024,,080925,,,A,V*11
17:30:01  $GNGGA,173000.80,5539.10756,N,01234.50204,E,1,12,0.47,1.3,M,39.5,M,,*4A
17:30:01  $GNGSA,A,3,10,12,13,14,15,17,02,19,22,23,24,01,0.96,0.47,0.83,1*0D
17:30:01  $GNGSA,A,3,24,31,03,05,23,09,13,16,,,,,0.96,0.47,0.83,3*0B
17:30:01  $GNGSA,A,3,07,14,24,25,26,29,33,35,40,41,44,10,0.96,0.47,0.83,4*09
17:30:01  $GNGSA,A,3,,,,,,,,,,,,,0.96,0.47,0.83,5*02
17:30:01  $GNRMC,173000.90,A,5539.10756,N,01234.50204,E,0.006,,080925,,,A,V*10
17:30:01  $GNGGA,173000.90,5539.10756,N,01234.50204,E,1,12,0.47,1.3,M,39.5,M,,*4B
17:30:01  $GNGSA,A,3,10,12,13,14,15,17,02,19,22,23,24,01,0.96,0.47,0.83,1*0D
17:30:01  $GNGSA,A,3,24,31,03,05,23,09,13,16,,,,,0.96,0.47,0.83,3*0B
17:30:01  $GNGSA,A,3,07,14,24,25,26,29,33,35,40,41,44,10,0.96,0.47,0.83,4*09
17:30:01  $GNGSA,A,3,,,,,,,,,,,,,0.96,0.47,0.83,5*02
17:30:01  $GNRMC,173001.00,A,5539.10756,N,01234.50204,E,0.015,,080925,,,A,V*1A
17:30:01  $GNGGA,173001.00,5539.10756,N,01234.50204,E,1,12,0.47,1.3,M,39.5,M,,*43
17:30:01  $GNGSA,A,3,10,12,13,14,15,17,02,19,22,23,24,01,0.96,0.47,0.83,1*0D
17:30:01  $GNGSA,A,3,24,31,03,05,23,09,13,16,,,,,0.96,0.47,0.83,3*0B
17:30:01  $GNGSA,A,3,07,14,24,25,26,29,33,35,40,41,44,10,0.96,0.47,0.83,4*09
17:30:01  $GNGSA,A,3,,,,,,,,,,,,,0.96,0.47,0.83,5*02
17:30:01  $GNRMC,173001.20,A,5539.10756,N,01234.50204,E,0.019,,080925,,,A,V*14
17:30:01  $GNGGA,173001.20,5539.10756,N,01234.50204,E,1,12,0.47,1.3,M,39.5,M,,*41
17:30:01  $GNGSA,A,3,10,12,13,14,15,17,02,19,22,23,24,01,0.96,0.47,0.83,1*0D
17:30:01  $GNGSA,A,3,24,31,03,05,23,09,13,16,,,,,0.96,0.47,0.83,3*0B
17:30:01  $GNGSA,A,3,07,14,24,25,26,29,33,35,40,41,44,10,0.96,0.47,0.83,4*09
17:30:01  $GNGSA,A,3,,,,,,,,,,,,,0.96,0.47,0.83,5*02
17:30:01  $GNRMC,173001.30,A,5539.10756,N,01234.50204,E,0.025,,080925,,,A,V*1A
17:30:01  $GNGGA,173001.30,5539.10756,N,01234.50204,E,1,12,0.47,1.3,M,39.5,M,,*40
17:30:01  $GNGSA,A,3,10,12,13,14,15,17,02,19,22,23,24,01,0.96,0.47,0.83,1*0D
17:30:01  $GNGSA,A,3,24,31,03,05,23,09,13,16,,,,,0.96,0.47,0.83,3*0B
17:30:01  $GNGSA,A,3,07,14,24,25,26,29,33,35,40,41,44,10,0.96,0.47,0.83,4*09
17:30:01  $GNGSA,A,3,,,,,,,,,,,,,0.96,0.47,0.83,5*02
17:30:01  $GNRMC,173001.40,A,5539.10756,N,01234.50204,E,0.006,,080925,,,A,V*1C
17:30:01  $GNGGA,173001.40,5539.10756,N,01234.50204,E,1,12,0.47,1.3,M,39.5,M,,*47
17:30:01  $GNGSA,A,3,10,12,13,14,15,17,02,19,22,23,24,01,0.96,0.47,0.83,1*0D
17:30:01  $GNGSA,A,3,24,31,03,05,23,09,13,16,,,,,0.96,0.47,0.83,3*0B
17:30:01  $GNGSA,A,3,07,14,24,25,26,29,33,35,40,41,44,10,0.96,0.47,0.83,4*09
17:30:01  $GNGSA,A,3,,,,,,,,,,,,,0.96,0.47,0.83,5*02
17:30:02  $GNRMC,173001.50,A,5539.10756,N,01234.50203,E,0.015,,080925,,,A,V*18
17:30:02  $GNGGA,173001.50,5539.10756,N,01234.50203,E,1,12,0.47,1.3,M,39.5,M,,*41
17:30:02  $GNGSA,A,3,10,12,13,14,15,17,02,19,22,23,24,01,0.96,0.47,0.83,1*0D
17:30:02  $GNGSA,A,3,24,31,03,05,23,09,13,16,,,,,0.96,0.47,0.83,3*0B
17:30:02  $GNGSA,A,3,07,14,24,25,26,29,33,35,40,41,44,10,0.96,0.47,0.83,4*09
17:30:02  $GNGSA,A,3,,,,,,,,,,,,,0.96,0.47,0.83,5*02
17:30:02  $GNRMC,173001.60,A,5539.10756,N,01234.50203,E,0.022,,080925,,,A,V*1F
17:30:02  $GNGGA,173001.60,5539.10756,N,01234.50203,E,1,12,0.47,1.3,M,39.5,M,,*42
17:30:02  $GNGSA,A,3,10,12,13,14,15,17,02,19,22,23,24,01,0.96,0.47,0.83,1*0D
17:30:02  $GNGSA,A,3,24,31,03,05,23,09,13,16,,,,,0.96,0.47,0.83,3*0B
17:30:02  $GNGSA,A,3,07,14,24,25,26,29,33,35,40,41,44,10,0.96,0.47,0.83,4*09
17:30:02  $GNGSA,A,3,,,,,,,,,,,,,0.96,0.47,0.83,5*02
17:30:02  $GNRMC,173001.70,A,5539.10756,N,01234.50203,E,0.048,,080925,,,A,V*12
17:30:02  $GNGGA,173001.70,5539.10756,N,01234.50203,E,1,12,0.47,1.3,M,39.5,M,,*43
17:30:02  $GNGSA,A,3,10,12,13,14,15,17,02,19,22,23,24,01,0.96,0.47,0.83,1*0D
17:30:02  $GNGSA,A,3,24,31,03,05,23,09,13,16,,,,,0.96,0.47,0.83,3*0B
17:30:02  $GNGSA,A,3,07,14,24,25,26,29,33,35,40,41,44,10,0.96,0.47,0.83,4*09
17:30:02  $GNGSA,A,3,,,,,,,,,,,,,0.96,0.47,0.83,5*02
17:30:02  $GNRMC,173001.80,A,5539.10756,N,01234.50203,E,0.030,,080925,,,A,V*12
17:30:02  $GNGGA,173001.80,5539.10756,N,01234.50203,E,1,12,0.47,1.3,M,39.5,M,,*4C
17:30:02  $GNGSA,A,3,10,12,13,14,15,17,02,19,22,23,24,01,0.96,0.47,0.83,1*0D
17:30:02  $GNGSA,A,3,24,31,03,05,23,09,13,16,,,,,0.96,0.47,0.83,3*0B
17:30:02  $GNGSA,A,3,07,14,24,25,26,29,33,35,40,41,44,10,0.96,0.47,0.83,4*09
17:30:02  $GNGSA,A,3,,,,,,,,,,,,,0.96,0.47,0.83,5*02
17:30:02  $GNRMC,173001.90,A,5539.10756,N,01234.50203,E,0.031,,080925,,,A,V*12
17:30:02  $GNGGA,173001.90,5539.10756,N,01234.50203,E,1,12,0.47,1.3,M,39.5,M,,*4D
17:30:02  $GNGSA,A,3,10,12,13,14,15,17,02,19,22,23,24,01,0.96,0.47,0.83,1*0D
17:30:02  $GNGSA,A,3,24,31,03,05,23,09,13,16,,,,,0.96,0.47,0.83,3*0B
17:30:02  $GNGSA,A,3,07,14,24,25,26,29,33,35,40,41,44,10,0.96,0.47,0.83,4*09
17:30:02  $GNGSA,A,3,,,,,,,,,,,,,0.96,0.47,0.83,5*02
17:30:02  $GNRMC,173002.00,A,5539.10756,N,01234.50203,E,0.025,,080925,,,A,V*1D
17:30:02  $GNGGA,173002.00,5539.10756,N,01234.50203,E,1,12,0.47,1.3,M,39.5,M,,*47
17:30:02  $GNGSA,A,3,10,12,13,14,15,17,02,19,22,23,24,01,0.96,0.47,0.83,1*0D
17:30:02  $GNGSA,A,3,24,31,03,05,23,09,13,16,,,,,0.96,0.47,0.83,3*0B
17:30:02  $GNGSA,A,3,07,14,24,25,26,29,33,35,40,41,44,10,0.96,0.47,0.83,4*09
17:30:02  $GNGSA,A,3,,,,,,,,,,,,,0.96,0.47,0.83,5*02
17:30:02  $GNRMC,173002.20,A,5539.10756,N,01234.50203,E,0.009,,080925,,,A,V*11
17:30:02  $GNGGA,173002.20,5539.10756,N,01234.50203,E,1,12,0.47,1.3,M,39.5,M,,*45
17:30:02  $GNGSA,A,3,10,12,13,14,15,17,02,19,22,23,24,01,0.96,0.47,0.83,1*0D
17:30:02  $GNGSA,A,3,24,31,03,05,23,09,13,16,,,,,0.96,0.47,0.83,3*0B
17:30:02  $GNGSA,A,3,07,14,24,25,26,29,33,35,40,41,44,10,0.96,0.47,0.83,4*09
17:30:02  $GNGSA,A,3,,,,,,,,,,,,,0.96,0.47,0.83,5*02
17:30:02  $GNRMC,173002.30,A,5539.10756,N,01234.50203,E,0.033,,080925,,,A,V*19
17:30:02  $GNGGA,173002.30,5539.10756,N,01234.50203,E,1,12,0.47,1.3,M,39.5,M,,*44
17:30:02  $GNGSA,A,3,10,12,13,14,15,17,02,19,22,23,24,01,0.96,0.47,0.83,1*0D
17:30:02  $GNGSA,A,3,24,31,03,05,23,09,13,16,,,,,0.96,0.47,0.83,3*0B
17:30:02  $GNGSA,A,3,07,14,24,25,26,29,33,35,40,41,44,10,0.96,0.47,0.83,4*09
17:30:02  $GNGSA,A,3,,,,,,,,,,,,,0.96,0.47,0.83,5*02
17:30:02  $GNRMC,173002.40,A,5539.10756,N,01234.50203,E,0.036,,080925,,,A,V*1B
17:30:02  $GNGGA,173002.40,5539.10756,N,01234.50203,E,1,12,0.47,1.3,M,39.5,M,,*43
17:30:02  $GNGSA,A,3,10,12,13,14,15,17,02,19,22,23,24,01,0.96,0.47,0.83,1*0D
17:30:02  $GNGSA,A,3,24,31,03,05,23,09,13,16,,,,,0.96,0.47,0.83,3*0B
17:30:02  $GNGSA,A,3,07,14,24,25,26,29,33,35,40,41,44,10,0.96,0.47,0.83,4*09
17:30:02  $GNGSA,A,3,,,,,,,,,,,,,0.96,0.47,0.83,5*02
17:30:03  $GNRMC,173002.50,A,5539.10756,N,01234.50203,E,0.009,,080925,,,A,V*16
17:30:03  $GNGGA,173002.50,5539.10756,N,01234.50203,E,1,12,0.47,1.3,M,39.5,M,,*42
17:30:03  $GNGSA,A,3,10,12,13,14,15,17,02,19,22,23,24,01,0.96,0.47,0.83,1*0D
17:30:03  $GNGSA,A,3,24,31,03,05,23,09,13,16,,,,,0.96,0.47,0.83,3*0B
17:30:03  $GNGSA,A,3,07,14,24,25,26,29,33,35,40,41,44,10,0.96,0.47,0.83,4*09
17:30:03  $GNGSA,A,3,,,,,,,,,,,,,0.96,0.47,0.83,5*02
17:32:12 [19:33:52.688] $GNRMC,173211.50,A,5539.10741,N,01234.50194,E,0.027,,080925,,,A,V*11
17:32:12 [19:33:52.689] $GNGGA,173211.50,5539.10741,N,01234.50194,E,1,12,0.46,1.2,M,39.5,M,,*49
17:32:12 [19:33:52.690] $GNGSA,A,3,10,12,13,14,15,17,02,19,22,23,24,,0.91,0.46,0.79,1*0F
17:32:12 [19:33:52.690] $GNGSA,A,3,24,31,03,05,23,09,13,16,25,,,,0.91,0.46,0.79,3*0F
17:32:12 [19:33:52.691] $GNGSA,A,3,07,14,24,25,26,29,33,35,40,41,44,10,0.91,0.46,0.79,4*0A
17:32:12 [19:33:52.691] $GNGSA,A,3,,,,,,,,,,,,,0.91,0.46,0.79,5*01
17:32:12 [19:33:52.798] $GNRMC,173211.60,A,5539.10741,N,01234.50194,E,0.016,,080925,,,A,V*10
17:32:12 [19:33:52.814] $GNGGA,173211.60,5539.10741,N,01234.50194,E,1,12,0.46,1.2,M,39.5,M,,*4A
17:32:12 [19:33:52.814] $GNGSA,A,3,10,12,13,14,15,17,02,19,22,23,24,,0.91,0.46,0.79,1*0F
17:32:12 [19:33:52.814] $GNGSA,A,3,24,31,03,05,23,09,13,16,25,,,,0.91,0.46,0.79,3*0F
17:32:12 [19:33:52.814] $GNGSA,A,3,07,14,24,25,26,29,33,35,40,41,44,10,0.91,0.46,0.79,4*0A
17:32:12 [19:33:52.814] $GNGSA,A,3,,,,,,,,,,,,,0.91,0.46,0.79,5*01
17:32:12 [19:33:52.862] $GNRMC,173211.70,A,5539.10741,N,01234.50194,E,0.031,,080925,,,A,V*14
17:32:12 [19:33:52.862] $GNGGA,173211.70,5539.10741,N,01234.50194,E,1,12,0.46,1.2,M,39.5,M,,*4B
17:32:12 [19:33:52.862] $GNGSA,A,3,10,12,13,14,15,17,02,19,22,23,24,,0.91,0.46,0.79,1*0F
17:32:12 [19:33:52.862] $GNGSA,A,3,24,31,03,05,23,09,13,16,25,,,,0.91,0.46,0.79,3*0F
17:32:12 [19:33:52.877] $GNGSA,A,3,07,14,24,25,26,29,33,35,40,41,44,10,0.91,0.46,0.79,4*0A
17:32:12 [19:33:52.877] $GNGSA,A,3,,,,,,,,,,,,,0.91,0.46,0.79,5*01
17:32:12 [19:33:52.977] $GNRMC,173211.80,A,5539.10741,N,01234.50194,E,0.041,,080925,,,A,V*1C
17:32:12 [19:33:52.998] $GNGGA,173211.80,5539.10741,N,01234.50194,E,1,12,0.46,1.2,M,39.5,M,,*44
17:32:12 [19:33:52.998] $GNGSA,A,3,10,12,13,14,15,17,02,19,22,23,24,,0.91,0.46,0.79,1*0F
17:32:12 [19:33:52.998] $GNGSA,A,3,24,31,03,05,23,09,13,16,25,,,,0.91,0.46,0.79,3*0F
17:32:12 [19:33:52.998] $GNGSA,A,3,07,14,24,25,26,29,33,35,40,41,44,10,0.91,0.46,0.79,4*0A
17:32:12 [19:33:52.998] $GNGSA,A,3,,,,,,,,,,,,,0.91,0.46,0.79,5*01
17:32:12 [19:33:53.076] $GNRMC,173211.90,A,5539.10741,N,01234.50194,E,0.014,,080925,,,A,V*1D
17:32:12 [19:33:53.077] $GNGGA,173211.90,5539.10741,N,01234.50194,E,1,12,0.46,1.2,M,39.5,M,,*45
17:32:12 [19:33:53.077] $GNGSA,A,3,10,12,13,14,15,17,02,19,22,23,24,,0.91,0.46,0.79,1*0F
17:32:12 [19:33:53.079] $GNGSA,A,3,24,31,03,05,23,09,13,16,25,,,,0.91,0.46,0.79,3*0F
17:32:12 [19:33:53.079] $GNGSA,A,3,07,14,24,25,26,29,33,35,40,41,44,10,0.91,0.46,0.79,4*0A
17:32:12 [19:33:53.080] $GNGSA,A,3,,,,,,,,,,,,,0.91,0.46,0.79,5*01
17:32:12 [19:33:53.214] $GNRMC,173212.00,A,5539.10741,N,01234.50194,E,0.014,,080925,,,A,V*17
17:32:12 [19:33:53.230] $GNGGA,173212.00,5539.10741,N,01234.50194,E,1,12,0.46,1.2,M,39.5,M,,*4F
17:32:12 [19:33:53.231] $GNGSA,A,3,10,12,13,14,15,17,02,19,22,23,24,,0.91,0.46,0.79,1*0F
17:32:12 [19:33:53.247] $GNGSA,A,3,24,31,03,05,23,09,13,16,25,,,,0.91,0.46,0.79,3*0F
17:32:12 [19:33:53.247] $GNGSA,A,3,07,14,24,25,26,29,33,35,40,41,44,10,0.91,0.46,0.79,4*0A
17:32:12 [19:33:53.247] $GNGSA,A,3,,,,,,,,,,,,,0.91,0.46,0.79,5*01
17:32:12 [19:33:53.399] $GNRMC,173212.20,A,5539.10741,N,01234.50194,E,0.011,,080925,,,A,V*10
17:32:12 [19:33:53.415] $GNGGA,173212.20,5539.10741,N,01234.50194,E,1,12,0.46,1.2,M,39.5,M,,*4D
17:32:12 [19:33:53.431] $GNGSA,A,3,10,12,13,14,15,17,02,19,22,23,24,,0.91,0.46,0.79,1*0F
17:32:12 [19:33:53.431] $GNGSA,A,3,24,31,03,05,23,09,13,16,25,,,,0.91,0.46,0.79,3*0F
17:32:12 [19:33:53.431] $GNGSA,A,3,07,14,24,25,26,29,33,35,40,41,44,10,0.91,0.46,0.79,4*0A
17:32:12 [19:33:53.431] $GNGSA,A,3,,,,,,,,,,,,,0.91,0.46,0.79,5*01
17:32:12 [19:33:53.531] $GNRMC,173212.30,A,5539.10741,N,01234.50193,E,0.032,,080925,,,A,V*17
17:32:12 [19:33:53.531] $GNGGA,173212.30,5539.10741,N,01234.50193,E,1,12,0.46,1.2,M,39.5,M,,*4B
17:32:12 [19:33:53.531] $GNGSA,A,3,10,12,13,14,15,17,02,19,22,23,24,,0.91,0.46,0.79,1*0F
17:32:12 [19:33:53.531] $GNGSA,A,3,24,31,03,05,23,09,13,16,25,,,,0.91,0.46,0.79,3*0F
17:32:12 [19:33:53.531] $GNGSA,A,3,07,14,24,25,26,29,33,35,40,41,44,10,0.91,0.46,0.79,4*0A
17:32:12 [19:33:53.547] $GNGSA,A,3,,,,,,,,,,,,,0.91,0.46,0.79,5*01
17:32:12 [19:33:53.593] $GNRMC,173212.40,A,5539.10741,N,01234.50193,E,0.029,,080925,,,A,V*1A
17:32:12 [19:33:53.593] $GNGGA,173212.40,5539.10741,N,01234.50193,E,1,12,0.46,1.2,M,39.5,M,,*4C
17:32:12 [19:33:53.593] $GNGSA,A,3,10,12,13,14,15,17,02,19,22,23,24,,0.91,0.46,0.79,1*0F
17:32:12 [19:33:53.600] $GNGSA,A,3,24,31,03,05,23,09,13,16,25,,,,0.91,0.46,0.79,3*0F
17:32:12 [19:33:53.600] $GNGSA,A,3,07,14,24,25,26,29,33,35,40,41,44,10,0.91,0.46,0.79,4*0A
17:32:12 [19:33:53.600] $GNGSA,A,3,,,,,,,,,,,,,0.91,0.46,0.79,5*01
17:32:13 [19:33:53.647] $GNRMC,173212.50,A,5539.10741,N,01234.50194,E,0.025,,080925,,,A,V*10
17:32:13 [19:33:53.647] $GNGGA,173212.50,5539.10741,N,01234.50194,E,1,12,0.46,1.2,M,39.5,M,,*4A
17:32:13 [19:33:53.662] $GNGSA,A,3,10,12,13,14,15,17,02,19,22,23,24,,0.91,0.46,0.79,1*0F
17:32:13 [19:33:53.662] $GNGSA,A,3,24,31,03,05,23,09,13,16,25,,,,0.91,0.46,0.79,3*0F
17:32:13 [19:33:53.662] $GNGSA,A,3,07,14,24,25,26,29,33,35,40,41,44,10,0.91,0.46,0.79,4*0A
17:32:13 [19:33:53.662] $GNGSA,A,3,,,,,,,,,,,,,0.91,0.46,0.79,5*01
17:32:13 [19:33:53.794] $GNRMC,173212.60,A,5539.10741,N,01234.50193,E,0.013,,080925,,,A,V*11
17:32:13 [19:33:53.794] $GNGGA,173212.60,5539.10741,N,01234.50193,E,1,12,0.46,1.2,M,39.5,M,,*4E
17:32:13 [19:33:53.801] $GNGSA,A,3,10,12,13,14,15,17,02,19,22,23,24,,0.91,0.46,0.79,1*0F
17:32:13 [19:33:53.801] $GNGSA,A,3,24,31,03,05,23,09,13,16,25,,,,0.91,0.46,0.79,3*0F
17:32:13 [19:33:53.801] $GNGSA,A,3,07,14,24,25,26,29,33,35,40,41,44,10,0.91,0.46,0.79,4*0A
17:32:13 [19:33:53.801] $GNGSA,A,3,,,,,,,,,,,,,0.91,0.46,0.79,5*01
17:32:13 [19:33:53.918] $GNRMC,173212.70,A,5539.10741,N,01234.50194,E,0.029,,080925,,,A,V*1E
17:32:13 [19:33:53.918] $GNGGA,173212.70,5539.10741,N,01234.50194,E,1,12,0.46,1.2,M,39.5,M,,*48
17:32:13 [19:33:53.918] $GNGSA,A,3,10,12,13,14,15,17,02,19,22,23,24,,0.91,0.46,0.79,1*0F
17:32:13 [19:33:53.918] $GNGSA,A,3,24,31,03,05,23,09,13,16,25,,,,0.91,0.46,0.79,3*0F
17:32:13 [19:33:53.918] $GNGSA,A,3,07,14,24,25,26,29,33,35,40,41,44,10,0.91,0.46,0.79,4*0A
17:32:13 [19:33:53.918] $GNGSA,A,3,,,,,,,,,,,,,0.91,0.46,0.79,5*01
17:32:13 [19:33:53.980] $GNRMC,173212.80,A,5539.10741,N,01234.50193,E,0.045,,080925,,,A,V*1C
17:32:13 [19:33:53.980] $GNGGA,173212.80,5539.10741,N,01234.50193,E,1,12,0.46,1.2,M,39.5,M,,*40
17:32:13 [19:33:53.980] $GNGSA,A,3,10,12,13,14,15,17,02,19,22,23,24,,0.91,0.46,0.79,1*0F
17:32:13 [19:33:53.980] $GNGSA,A,3,24,31,03,05,23,09,13,16,25,,,,0.91,0.46,0.79,3*0F
17:32:13 [19:33:53.980] $GNGSA,A,3,07,14,24,25,26,29,33,35,40,41,44,10,0.91,0.46,0.79,4*0A
17:32:13 [19:33:53.980] $GNGSA,A,3,,,,,,,,,,,,,0.91,0.46,0.79,5*01
17:32:13 [19:33:54.101] $GNRMC,173212.90,A,5539.10741,N,01234.50193,E,0.015,,080925,,,A,V*18
17:32:13 [19:33:54.101] $GNGGA,173212.90,5539.10741,N,01234.50193,E,1,12,0.46,1.2,M,39.5,M,,*41
17:32:13 [19:33:54.102] $GNGSA,A,3,10,12,13,14,15,17,02,19,22,23,24,,0.91,0.46,0.79,1*0F
17:32:13 [19:33:54.103] $GNGSA,A,3,24,31,03,05,23,09,13,16,25,,,,0.91,0.46,0.79,3*0F
17:32:13 [19:33:54.103] $GNGSA,A,3,07,14,24,25,26,29,33,35,40,41,44,10,0.91,0.46,0.79,4*0A
17:32:13 [19:33:54.105] $GNGSA,A,3,,,,,,,,,,,,,0.91,0.46,0.79,5*01
17:32:13 [19:33:54.276] $GNRMC,173213.00,A,5539.10741,N,01234.50193,E,0.016,,080925,,,A,V*13
17:32:13 [19:33:54.284] $GNGGA,173213.00,5539.10741,N,01234.50193,E,1,12,0.46,1.2,M,39.5,M,,*49
17:32:13 [19:33:54.286] $GNGSA,A,3,10,12,13,14,15,17,02,19,22,23,24,,0.91,0.46,0.79,1*0F
17:32:13 [19:33:54.286] $GNGSA,A,3,24,31,03,05,23,09,13,16,25,,,,0.91,0.46,0.79,3*0F
17:32:13 [19:33:54.286] $GNGSA,A,3,07,14,24,25,26,29,33,35,40,41,44,10,0.91,0.46,0.79,4*0A
17:32:13 [19:33:54.286] $GNGSA,A,3,,,,,,,,,,,,,0.91,0.46,0.79,5*01
17:32:13 [19:33:54.392] $GNRMC,173213.20,A,5539.10741,N,01234.50193,E,0.014,,080925,,,A,V*13
17:32:13 [19:33:54.392] $GNGGA,173213.20,5539.10741,N,01234.50193,E,1,12,0.46,1.2,M,39.5,M,,*4B
17:32:13 [19:33:54.408] $GNGSA,A,3,10,12,13,14,15,17,02,19,22,23,24,,0.91,0.46,0.79,1*0F
17:32:13 [19:33:54.408] $GNGSA,A,3,24,31,03,05,23,09,13,16,25,,,,0.91,0.46,0.79,3*0F
17:32:13 [19:33:54.408] $GNGSA,A,3,07,14,24,25,26,29,33,35,40,41,44,10,0.91,0.46,0.79,4*0A
17:32:13 [19:33:54.424] $GNGSA,A,3,,,,,,,,,,,,,0.91,0.46,0.79,5*01
17:32:13 [19:33:54.546] $GNRMC,173213.30,A,5539.10741,N,01234.50193,E,0.034,,080925,,,A,V*10
17:32:13 [19:33:54.546] $GNGGA,173213.30,5539.10741,N,01234.50193,E,1,12,0.46,1.2,M,39.5,M,,*4A
17:32:13 [19:33:54.546] $GNGSA,A,3,10,12,13,14,15,17,02,19,22,23,24,,0.91,0.46,0.79,1*0F
17:32:13 [19:33:54.546] $GNGSA,A,3,24,31,03,05,23,09,13,16,25,,,,0.91,0.46,0.79,3*0F
17:32:13 [19:33:54.546] $GNGSA,A,3,07,14,24,25,26,29,33,35,40,41,44,10,0.91,0.46,0.79,4*0A
17:32:13 [19:33:54.546] $GNGSA,A,3,,,,,,,,,,,,,0.91,0.46,0.79,5*01
17:32:13 [19:33:54.594] $GNRMC,173213.40,A,5539.10741,N,01234.50193,E,0.023,,080925,,,A,V*11
17:32:13 [19:33:54.594] $GNGGA,173213.40,5539.10741,N,01234.50193,E,1,12,0.46,1.2,M,39.5,M,,*4D
17:32:13 [19:33:54.594] $GNGSA,A,3,10,12,13,14,15,17,02,19,22,23,24,,0.91,0.46,0.79,1*0F
17:32:13 [19:33:54.594] $GNGSA,A,3,24,31,03,05,23,09,13,16,25,,,,0.91,0.46,0.79,3*0F
17:32:13 [19:33:54.594] $GNGSA,A,3,07,14,24,25,26,29,33,35,40,41,44,10,0.91,0.46,0.79,4*0A
17:32:13 [19:33:54.594] $GNGSA,A,3,,,,,,,,,,,,,0.91,0.46,0.79,5*01
17:32:14 [19:33:54.656] $GNRMC,173213.50,A,5539.10741,N,01234.50193,E,0.021,,080925,,,A,V*12
17:32:14 [19:33:54.657] $GNGGA,173213.50,5539.10741,N,01234.50193,E,1,12,0.46,1.2,M,39.5,M,,*4C
17:32:14 [19:33:54.657] $GNGSA,A,3,10,12,13,14,15,17,02,19,22,23,24,,0.91,0.46,0.79,1*0F
17:32:14 [19:33:54.658] $GNGSA,A,3,24,31,03,05,23,09,13,16,25,,,,0.91,0.46,0.79,3*0F
17:32:14 [19:33:54.658] $GNGSA,A,3,07,14,24,25,26,29,33,35,40,41,44,10,0.91,0.46,0.79,4*0A
17:32:14 [19:33:54.658] $GNGSA,A,3,,,,,,,,,,,,,0.91,0.46,0.79,5*01
17:32:14 [19:33:54.778] $GNRMC,173213.60,A,5539.10741,N,01234.50193,E,0.015,,080925,,,A,V*16
17:32:14 [19:33:54.778] $GNGGA,173213.60,5539.10741,N,01234.50193,E,1,12,0.46,1.2,M,39.5,M,,*4F
17:32:14 [19:33:54.778] $GNGSA,A,3,10,12,13,14,15,17,02,19,22,23,24,,0.91,0.46,0.79,1*0F
17:32:14 [19:33:54.778] $GNGSA,A,3,24,31,03,05,23,09,13,16,25,,,,0.91,0.46,0.79,3*0F
17:32:14 [19:33:54.778] $GNGSA,A,3,07,14,24,25,26,29,33,35,40,41,44,10,0.91,0.46,0.79,4*0A
17:32:14 [19:33:54.778] $GNGSA,A,3,,,,,,,,,,,,,0.91,0.46,0.79,5*01
17:32:14 [19:33:54.879] $GNRMC,173213.70,A,5539.10741,N,01234.50193,E,0.036,,080925,,,A,V*16
17:32:14 [19:33:54.879] $GNGGA,173213.70,5539.10741,N,01234.50193,E,1,12,0.46,1.2,M,39.5,M,,*4E
17:32:14 [19:33:54.879] $GNGSA,A,3,10,12,13,14,15,17,02,19,22,23,24,,0.91,0.46,0.79,1*0F
17:32:14 [19:33:54.895] $GNGSA,A,3,24,31,03,05,23,09,13,16,25,,,,0.91,0.46,0.79,3*0F
17:32:14 [19:33:54.895] $GNGSA,A,3,07,14,24,25,26,29,33,35,40,41,44,10,0.91,0.46,0.79,4*0A
17:32:14 [19:33:54.895] $GNGSA,A,3,,,,,,,,,,,,,0.91,0.46,0.79,5*01
17:32:14 [19:33:55.024] $GNRMC,173213.80,A,5539.10741,N,01234.50193,E,0.028,,080925,,,A,V*16
17:32:14 [19:33:55.024] $GNGGA,173213.80,5539.10741,N,01234.50193,E,1,12,0.46,1.2,M,39.5,M,,*41
17:32:14 [19:33:55.046] $GNGSA,A,3,10,12,13,14,15,17,02,19,22,23,24,,0.91,0.46,0.79,1*0F
17:32:14 [19:33:55.046] $GNGSA,A,3,24,31,03,05,23,09,13,16,25,,,,0.91,0.46,0.79,3*0F
17:32:14 [19:33:55.046] $GNGSA,A,3,07,14,24,25,26,29,33,35,40,41,44,10,0.91,0.46,0.79,4*0A
17:32:14 [19:33:55.062] $GNGSA,A,3,,,,,,,,,,,,,0.91,0.46,0.79,5*01
17:32:14 [19:33:55.078] $GNRMC,173213.90,A,5539.10741,N,01234.50193,E,0.015,,080925,,,A,V*19
17:32:14 [19:33:55.078] $GNGGA,173213.90,5539.10741,N,01234.50193,E,1,12,0.46,1.2,M,39.5,M,,*40
17:32:14 [19:33:55.078] $GNGSA,A,3,10,12,13,14,15,17,02,19,22,23,24,,0.91,0.46,0.79,1*0F
17:32:14 [19:33:55.078] $GNGSA,A,3,24,31,03,05,23,09,13,16,25,,,,0.91,0.46,0.79,3*0F
17:32:14 [19:33:55.093] $GNGSA,A,3,07,14,24,25,26,29,33,35,40,41,44,10,0.91,0.46,0.79,4*0A
17:32:14 [19:33:55.093] $GNGSA,A,3,,,,,,,,,,,,,0.91,0.46,0.79,5*01
17:32:14 [19:33:55.278] $GNRMC,173214.00,A,5539.10741,N,01234.50193,E,0.009,,080925,,,A,V*1A
17:32:14 [19:33:55.278] $GNGGA,173214.00,5539.10741,N,01234.50193,E,1,12,0.46,1.2,M,39.5,M,,*4E
17:32:14 [19:33:55.278] $GNGSA,A,3,10,12,13,14,15,17,02,19,22,23,24,,0.91,0.46,0.79,1*0F
17:32:14 [19:33:55.278] $GNGSA,A,3,24,31,03,05,23,09,13,16,25,,,,0.91,0.46,0.79,3*0F
17:32:14 [19:33:55.278] $GNGSA,A,3,07,14,24,25,26,29,33,35,40,41,44,10,0.91,0.46,0.79,4*0A
17:32:14 [19:33:55.278] $GNGSA,A,3,,,,,,,,,,,,,0.91,0.46,0.79,5*01
17:32:14 [19:33:55.379] $GNRMC,173214.20,A,5539.10741,N,01234.50194,E,0.041,,080925,,,A,V*13
17:32:14 [19:33:55.379] $GNGGA,173214.20,5539.10741,N,01234.50194,E,1,12,0.46,1.2,M,39.5,M,,*4B
17:32:14 [19:33:55.394] $GNGSA,A,3,10,12,13,14,15,17,02,19,22,23,24,,0.91,0.46,0.79,1*0F
17:32:14 [19:33:55.394] $GNGSA,A,3,24,31,03,05,23,09,13,16,25,,,,0.91,0.46,0.79,3*0F
17:32:14 [19:33:55.394] $GNGSA,A,3,07,14,24,25,26,29,33,35,40,41,44,10,0.91,0.46,0.79,4*0A
17:32:14 [19:33:55.394] $GNGSA,A,3,,,,,,,,,,,,,0.91,0.46,0.79,5*01
17:32:14 [19:33:55.495] $GNRMC,173214.30,A,5539.10741,N,01234.50194,E,0.033,,080925,,,A,V*17
17:32:14 [19:33:55.511] $GNGGA,173214.30,5539.10741,N,01234.50194,E,1,12,0.46,1.2,M,39.5,M,,*4A
17:32:14 [19:33:55.511] $GNGSA,A,3,10,12,13,14,15,17,02,19,22,23,24,,0.91,0.46,0.79,1*0F
17:32:14 [19:33:55.511] $GNGSA,A,3,24,31,03,05,23,09,13,16,25,,,,0.91,0.46,0.79,3*0F
17:32:14 [19:33:55.511] $GNGSA,A,3,07,14,24,25,26,29,33,35,40,41,44,10,0.91,0.46,0.79,4*0A
17:32:14 [19:33:55.511] $GNGSA,A,3,,,,,,,,,,,,,0.91,0.46,0.79,5*01
17:32:14 [19:33:55.580] $GNRMC,173214.40,A,5539.10741,N,01234.50194,E,0.034,,080925,,,A,V*17
17:32:14 [19:33:55.580] $GNGGA,173214.40,5539.10741,N,01234.50194,E,1,12,0.46,1.2,M,39.5,M,,*4D
17:32:14 [19:33:55.580] $GNGSA,A,3,10,12,13,14,15,17,02,19,22,23,24,,0.91,0.46,0.79,1*0F
17:32:14 [19:33:55.580] $GNGSA,A,3,24,31,03,05,23,09,13,16,25,,,,0.91,0.46,0.79,3*0F
17:32:14 [19:33:55.580] $GNGSA,A,3,07,14,24,25,26,29,33,35,40,41,44,10,0.91,0.46,0.79,4*0A
17:32:14 [19:33:55.580] $GNGSA,A,3,,,,,,,,,,,,,0.91,0.46,0.79,5*01
17:32:15 [19:33:55.680] $GNRMC,173214.50,A,5539.10741,N,01234.50193,E,0.039,,080925,,,A,V*1C
17:32:15 [19:33:55.695] $GNGGA,173214.50,5539.10741,N,01234.50193,E,1,12,0.46,1.2,M,39.5,M,,*4B
17:32:15 [19:33:55.695] $GNGSA,A,3,10,12,13,14,15,17,02,19,22,23,24,,0.91,0.46,0.79,1*0F
17:32:15 [19:33:55.695] $GNGSA,A,3,24,31,03,05,23,09,13,16,25,,,,0.91,0.46,0.79,3*0F
17:32:15 [19:33:55.695] $GNGSA,A,3,07,14,24,25,26,29,33,35,40,41,44,10,0.91,0.46,0.79,4*0A
17:32:15 [19:33:55.695] $GNGSA,A,3,,,,,,,,,,,,,0.91,0.46,0.79,5*01
17:32:15 [19:33:55.812] $GNRMC,173214.60,A,5539.10741,N,01234.50194,E,0.033,,080925,,,A,V*12
17:32:15 [19:33:55.812] $GNGGA,173214.60,5539.10741,N,01234.50194,E,1,12,0.46,1.2,M,39.5,M,,*4F
17:32:15 [19:33:55.813] $GNGSA,A,3,10,12,13,14,15,17,02,19,22,23,24,,0.91,0.46,0.79,1*0F
17:32:15 [19:33:55.813] $GNGSA,A,3,24,31,03,05,23,09,13,16,25,,,,0.91,0.46,0.79,3*0F
17:32:15 [19:33:55.814] $GNGSA,A,3,07,14,24,25,26,29,33,35,40,41,44,10,0.91,0.46,0.79,4*0A
17:32:15 [19:33:55.814] $GNGSA,A,3,,,,,,,,,,,,,0.91,0.46,0.79,5*01
17:32:15 [19:33:55.911] $GNRMC,173214.70,A,5539.10740,N,01234.50194,E,0.034,,080925,,,A,V*15
17:32:15 [19:33:55.911] $GNGGA,173214.70,5539.10740,N,01234.50194,E,1,12,0.46,1.2,M,39.5,M,,*4F
17:32:15 [19:33:55.911] $GNGSA,A,3,10,12,13,14,15,17,02,19,22,23,24,,0.91,0.46,0.79,1*0F
17:32:15 [19:33:55.927] $GNGSA,A,3,24,31,03,05,23,09,13,16,25,,,,0.91,0.46,0.79,3*0F
17:32:15 [19:33:55.927] $GNGSA,A,3,07,14,24,25,26,29,33,35,40,41,44,10,0.91,0.46,0.79,4*0A
17:32:15 [19:33:55.927] $GNGSA,A,3,,,,,,,,,,,,,0.91,0.46,0.79,5*01
17:32:15 [19:33:55.965] $GNRMC,173214.80,A,5539.10741,N,01234.50194,E,0.029,,080925,,,A,V*17
17:32:15 [19:33:55.965] $GNGGA,173214.80,5539.10741,N,01234.50194,E,1,12,0.46,1.2,M,39.5,M,,*41
17:32:15 [19:33:55.965] $GNGSA,A,3,10,12,13,14,15,17,02,19,22,23,24,,0.91,0.46,0.79,1*0F
17:32:15 [19:33:55.980] $GNGSA,A,3,24,31,03,05,23,09,13,16,25,,,,0.91,0.46,0.79,3*0F
17:32:15 [19:33:55.980] $GNGSA,A,3,07,14,24,25,26,29,33,35,40,41,44,10,0.91,0.46,0.79,4*0A
17:32:15 [19:33:55.980] $GNGSA,A,3,,,,,,,,,,,,,0.91,0.46,0.79,5*01
17:32:15 [19:33:56.096] $GNRMC,173214.90,A,5539.10741,N,01234.50194,E,0.006,,080925,,,A,V*1B
17:32:15 [19:33:56.096] $GNGGA,173214.90,5539.10741,N,01234.50194,E,1,12,0.46,1.2,M,39.5,M,,*40
17:32:15 [19:33:56.096] $GNGSA,A,3,10,12,13,14,15,17,02,19,22,23,24,,0.91,0.46,0.79,1*0F
17:32:15 [19:33:56.096] $GNGSA,A,3,24,31,03,05,23,09,13,16,25,,,,0.91,0.46,0.79,3*0F
17:32:15 [19:33:56.096] $GNGSA,A,3,07,14,24,25,26,29,33,35,40,41,44,10,0.91,0.46,0.79,4*0A
17:32:15 [19:33:56.096] $GNGSA,A,3,,,,,,,,,,,,,0.91,0.46,0.79,5*01
17:32:15 [19:33:56.281] $GNRMC,173215.00,A,5539.10741,N,01234.50194,E,0.008,,080925,,,A,V*1D
17:32:15 [19:33:56.281] $GNGGA,173215.00,5539.10741,N,01234.50194,E,1,12,0.46,1.2,M,39.5,M,,*48
17:32:15 [19:33:56.281] $GNGSA,A,3,10,12,13,14,15,17,02,19,22,23,24,,0.91,0.46,0.79,1*0F
17:32:15 [19:33:56.281] $GNGSA,A,3,24,31,03,05,23,09,13,16,25,,,,0.91,0.46,0.79,3*0F
17:32:15 [19:33:56.281] $GNGSA,A,3,07,14,24,25,26,29,33,35,40,41,44,10,0.91,0.46,0.79,4*0A
17:32:15 [19:33:56.281] $GNGSA,A,3,,,,,,,,,,,,,0.91,0.46,0.79,5*01
17:32:15 [19:33:56.402] $GNRMC,173215.20,A,5539.10741,N,01234.50193,E,0.065,,080925,,,A,V*13
17:32:15 [19:33:56.402] $GNGGA,173215.20,5539.10741,N,01234.50193,E,1,12,0.46,1.2,M,39.5,M,,*4D
17:32:15 [19:33:56.403] $GNGSA,A,3,10,12,13,14,15,17,02,19,22,23,24,,0.91,0.46,0.79,1*0F
17:32:15 [19:33:56.405] $GNGSA,A,3,24,31,03,05,23,09,13,16,25,,,,0.91,0.46,0.79,3*0F
17:32:15 [19:33:56.406] $GNGSA,A,3,07,14,24,25,26,29,33,35,40,41,44,10,0.91,0.46,0.79,4*0A
17:32:15 [19:33:56.407] $GNGSA,A,3,,,,,,,,,,,,,0.91,0.46,0.79,5*01
17:32:15 [19:33:56.482] $GNRMC,173215.30,A,5539.10741,N,01234.50193,E,0.041,,080925,,,A,V*14
17:32:15 [19:33:56.497] $GNGGA,173215.30,5539.10741,N,01234.50193,E,1,12,0.46,1.2,M,39.5,M,,*4C
17:32:15 [19:33:56.498] $GNGSA,A,3,10,12,13,14,15,17,02,19,22,23,24,,0.91,0.46,0.79,1*0F
17:32:15 [19:33:56.498] $GNGSA,A,3,24,31,03,05,23,09,13,16,25,,,,0.91,0.46,0.79,3*0F
17:32:15 [19:33:56.498] $GNGSA,A,3,07,14,24,25,26,29,33,35,40,41,44,10,0.91,0.46,0.79,4*0A
17:32:15 [19:33:56.498] $GNGSA,A,3,,,,,,,,,,,,,0.91,0.46,0.79,5*01
17:32:15 [19:33:56.597] $GNRMC,173215.40,A,5539.10741,N,01234.50193,E,0.018,,080925,,,A,V*1F
17:32:15 [19:33:56.597] $GNGGA,173215.40,5539.10741,N,01234.50193,E,1,12,0.46,1.2,M,39.5,M,,*4B
17:32:15 [19:33:56.597] $GNGSA,A,3,10,12,13,14,15,17,02,19,22,23,24,,0.91,0.46,0.79,1*0F
17:32:15 [19:33:56.614] $GNGSA,A,3,24,31,03,05,23,09,13,16,25,,,,0.91,0.46,0.79,3*0F
