loopIteration, time (us), axisP[0], axisP[1], axisP[2], axisI[0], axisI[1], axisI[2], axisD[0], axisD[1], axisF[0], axisF[1], axisF[2], rcCommand[0], rcCommand[1], rcCommand[2], rcCommand[3], setpoint[0], setpoint[1], setpoint[2], setpoint[3], gyroADC[0], gyroADC[1], gyroADC[2], accSmooth[0], accSmooth[1], accSmooth[2], motor[0], motor[1], motor[2], motor[3], magADC[0], magADC[1], magADC[2], BaroAlt (cm), debug[0], debug[1], debug[2], debug[3]
  1, 1370,   0,   0,   0,   0,   0, -100,   0,   0,   0,   0,   0,   0,   0,   0,   0,   0,   0,   0,  91,   5,   4,   3, 950, 535, 16428,  91,  91,  91,  91, -151,  11, -557, 9,  16, -94, 23293,   0
  2, 3322,   0,   0,   0,   0,   0, -100,   0,   0,   0,   0,   0,   0,   0,   0,   0,   0,   0,   0,  91,   3,  -2,   1, 1077, 461, 16536,  91,  91,  91,  91, -151,   9, -568, 50,  16, -94, 23390,   0
  3, 5493,   0,   0,   0,   0,   0, -99,   0,   0,   0,   0,   0,   0,   0,   0,   0,   0,   0,   0,  91,  -2,  13,  -4, 1082, 437, 16462,  91,  91,  91,  91, -151,   9, -568, 65,  16, -94, 23391,   0
  4, 7668,   0,   0,   0,   0,   0, -100,   0,   0,   0,   0,   0,   0,   0,   0,   0,   0,   0,   0,  91,   3,  -9,   7, 1070, 513, 16346,  91,  91,  91,  91, -158,   8, -560, 46,  16, -94, 23461,   0
  5, 9831,   0,   0,   0,   0,   0, -100,   0,   0,   0,   0,   0,   0,   0,   0,   0,   0,   0,   0,  91,   3,  13,   3, 1053, 553, 16369,  91,  91,  91,  91, -158,   8, -560, 34,  16, -93, 23461,   0
  6, 11939,   0,   0,   0,   0,   0, -100,   0,   0,   0,   0,   0,   0,   0,   0,   0,   0,   0,   0,  91,   9,   6,   8, 1014, 502, 16490,  91,  91,  91,  91, -159,   9, -558, 56,  16, -93, 23394,   0
  7, 14111,   0,   0,   0,   0,   0, -100,   0,   0,   0,   0,   0,   0,   0,   0,   0,   0,   0,   0,  91,  -2,  -6,  12, 1100, 541, 16521,  91,  91,  91,  91, -159,   9, -558, 82,  16, -93, 23394,   0
  8, 16285,   0,   0,   0,   0,   0, -100,   0,   0,   0,   0,   0,   0,   0,   0,   0,   0,   0,   0,  91,   8,   9,   8, 938, 607, 16358,  91,  91,  91,  91, -165,   8, -545, 61,  16, -92, 23471,   0
  9, 18630,   0,   0,   0,   0,   0, -99,   0,   0,   0,   0,   0,   0,   0,   0,   0,   0,   0,   0,  91,   7,   6,  -5, 1065, 581, 16400,  91,  91,  91,  91, -165,   8, -545, 54,  16, -92, 23471,   0
 10, 20803,   0,   0,   0,   0,   0, -99,   0,   0,   0,   0,   0,   0,   0,   0,   0,   0,   0,   0,  91,   6,  -8,   4, 1117, 533, 16396,  91,  91,  91,  91, -157,   5, -552, 47,  16, -92, 23584,   0
 11, 22977,   0,   0,   0,   0,   0, -100,   0,   0,   0,   0,   0,   0,   0,   0,   0,   0,   0,   0,  91,   6, -10,   6, 970, 606, 16377,  91,  91,  91,  91, -157,   5, -552, 36,  16, -92, 23584,   0
 12, 25213,   0,   0,   0,   0,   0, -99,   0,   0,   0,   0,   0,   0,   0,   0,   0,   0,   0,   0,  91,   7, -10,   0, 1088, 569, 16497,  91,  91,  91,  91, -157,   5, -552, 57,  16, -91, 23583,   0
 13, 27327,   0,   0,   0,   0,   0, -100,   0,   0,   0,   0,   0,   0,   0,   0,   0,   0,   0,   0,  91,   8,   2,   7, 981, 622, 16478,  91,  91,  91,  91, -157,   5, -552, 69,  17, -91, 23583,   0
 14, 29499,   0,   0,   0,   0,   0, -100,   0,   0,   0,   0,   0,   0,   0,   0,   0,   0,   0,   0,  91,   5,  -5,   8, 1018, 494, 16443,  91,  91,  91,  91, -157,   5, -552, 72,  17, -91, 23583,   0
 15, 31670,   0,   0,   0,   0,   0, -99,   0,   0,   0,   0,   0,   0,   0,   0,   0,   0,   0,   0,  91,   1,  -1,  -7, 973, 670, 16401,  91,  91,  91,  91, -167,  13, -557, 62,  17, -91, 23254,   0
 16, 34017,   0,   0,   0,   0,   0, -99,   0,   0,   0,   0,   0,   0,   0,   0,   0,   0,   0,   0,  91,   1,   0,  -6, 1033, 594, 16357,  91,  91,  91,  91, -167,  13, -557, 43,  17, -90, 23254,   0
 17, 36189,   0,   0,   0,   0,   0, -99,   0,   0,   0,   0,   0,   0,   0,   0,   0,   0,   0,   0,  91,   1,  -4,   0, 980, 666, 16408,  91,  91,  91,  91, -155,  14, -558, 40,  17, -90, 23127,   0
 18, 38362,   0,   0,   0,   0,   0, -99,   0,   0,   0,   0,   0,   0,   0,   0,   0,   0,   0,   0,  91,   1,   0,   0, 1080, 629, 16470,  91,  91,  91,  91, -155,  14, -558, 53,  17, -90, 23126,   0
 19, 40598,   0,   0,   0,   0,   0, -99,   0,   0,   0,   0,   0,   0,   0,   0,   0,   0,   0,   0,  91,  -1,  -3,   4, 1079, 697, 16459,  91,  91,  91,  91, -163,   9, -552, 61,  17, -89, 23420,   0
 20, 42711,   0,   0,   0,   0,   0, -100,   0,   0,   0,   0,   0,   0,   0,   0,   0,   0,   0,   0,  91,  -8,   5,  19, 1059, 721, 16498,  91,  91,  91,  91, -163,   9, -552, 77,  17, -89, 23419,   0
 21, 44883,   0,   0,   0,   0,   0, -99,   0,   0,   0,   0,   0,   0,   0,   0,   0,   0,   0,   0,  91,   1,   0, -17, 1054, 485, 16357,  91,  91,  91,  91, -155,  12, -547, 57,  17, -89, 23262,   0
 22, 47055,   0,   0,   0,   0,   0, -99,   0,   0,   0,   0,   0,   0,   0,   0,   0,   0,   0,   0,  91,  -6,  -6, -10, 1039, 693, 16435,  91,  91,  91,  91, -155,  12, -547, 58,  17, -88, 23262,   0
 23, 49403,   0,   0,   0,   0,   0, -99,   0,   0,   0,   0,   0,   0,   0,   0,   0,   0,   0,   0,  91,  -5, -10,  -2, 1086, 733, 16435,  91,  91,  91,  91, -150,  13, -550, 59,  18, -88, 23180,   0
 24, 51574,   0,   0,   0,   0,   0, -99,   0,   0,   0,   0,   0,   0,   0,   0,   0,   0,   0,   0,  91,   0,  -9, -13, 1142, 732, 16412,  91,  91,  91,  91, -150,  13, -550, 54,  18, -87, 23180,   0
 25, 53748,   0,   0,   0,   0,   0, -99,   0,   0,   0,   0,   0,   0,   0,   0,   0,   0,   0,   0,  91,  -9,   7,   4, 1126, 700, 16482,  91,  91,  91,  91, -162,  10, -546, 67,  18, -87, 23360,   0
 26, 55979,   0,   0,   0,   0,   0, -99,   0,   0,   0,   0,   0,   0,   0,   0,   0,   0,   0,   0,  91, -21,   2,  -1, 1159, 632, 16314,  91,  91,  91,  91, -162,  10, -546, 37,  18, -87, 23360,   0
 27, 58089,   0,   0,   0,   0,   0, -99,   0,   0,   0,   0,   0,   0,   0,   0,   0,   0,   0,   0,  91,  -2,   3,  -1, 1087, 641, 16439,  91,  91,  91,  91, -164,  15, -549, 42,  18, -86, 23165,   0
 28, 60262,   0,   0,   0,   0,   0, -99,   0,   0,   0,   0,   0,   0,   0,   0,   0,   0,   0,   0,  91,  -7,   3,  -3, 1124, 537, 16450,  91,  91,  91,  91, -164,  15, -549, 50,  18, -86, 23165,   0
 29, 62437,   0,   0,   0,   0,   0, -99,   0,   0,   0,   0,   0,   0,   0,   0,   0,   0,   0,   0,  91, -12,   4,   9, 1107, 621, 16447,  91,  91,  91,  91, -164,  15, -549, 56,  18, -86, 23165,   0
 30, 64783,   0,   0,   0,   0,   0, -99,   0,   0,   0,   0,   0,   0,   0,   0,   0,   0,   0,   0,  91,  -2,  -2,  -3, 1076, 585, 16439,  91,  91,  91,  91, -156,   7, -560, 59,  18, -86, 23475,   0
 31, 66956,   0,   0,   0,   0,   0, -99,   0,   0,   0,   0,   0,   0,   0,   0,   0,   0,   0,   0,  91, -10,   2,   6, 1119, 597, 16505,  91,  91,  91,  91, -156,   7, -560, 78,  18, -85, 23475,   0
 32, 69129,   0,   0,   0,   0,   0, -99,   0,   0,   0,   0,   0,   0,   0,   0,   0,   0,   0,   0,  91,  -4,  -3,  -2, 1164, 524, 16357,  91,  91,  91,  91, -157,  15, -572, 56,  18, -85, 23091,   0
 33, 71363,   0,   0,   0,   0,   0, -99,   0,   0,   0,   0,   0,   0,   0,   0,   0,   0,   0,   0,  91,  -9,   6,   2, 1145, 465, 16536,  91,  91,  91,  91, -157,  15, -572, 84,  18, -85, 23091,   0
 34, 73494,   0,   0,   0,   0,   0, -99,   0,   0,   0,   0,   0,   0,   0,   0,   0,   0,   0,   0,  91,   4,  -5,   0, 1037, 530, 16431,  91,  91,  91,  91, -157,   4, -555, 81,  18, -85, 23644,   0
 35, 75668,   0,   0,   0,   0,   0, -99,   0,   0,   0,   0,   0,   0,   0,   0,   0,   0,   0,   0,  91,  -3,   4,   1, 999, 478, 16404,  91,  91,  91,  91, -157,   4, -555, 71,  18, -85, 23645,   0
 36, 78011,   0,   0,   0,   0,   0, -99,   0,   0,   0,   0,   0,   0,   0,   0,   0,   0,   0,   0,  91,   0,  15,   0, 1047, 414, 16451,  91,  91,  91,  91, -147,   8, -565, 75,  18, -84, 23414,   0
 37, 80188,   0,   0,   0,   0,   0, -99,   0,   0,   0,   0,   0,   0,   0,   0,   0,   0,   0,   0,  91,  -7,   8,   0, 983, 498, 16346,  91,  91,  91,  91, -147,   8, -565, 52,  18, -84, 23414,   0
 38, 82377,   0,   0,   0,   0,   0, -99,   0,   0,   0,   0,   0,   0,   0,   0,   0,   0,   0,   0,  91,   3,   3,   3, 1011, 442, 16412,  91,  91,  91,  91, -158,   4, -548, 49,  18, -84, 23667,   0
 39, 84534,   0,   0,   0,   0,   0, -99,   0,   0,   0,   0,   0,   0,   0,   0,   0,   0,   0,   0,  91,  -4,   1,   6, 1065, 581, 16353,  91,  91,  91,  91, -158,   4, -548, 31,  18, -84, 23667,   0
 40, 86745,   0,   0,   0,   0,   0, -99,   0,   0,   0,   0,   0,   0,   0,   0,   0,   0,   0,   0,  91,  -1,   6,   0, 1040, 594, 16494,  91,  91,  91,  91, -154,  15, -562, 52,  18, -83, 23085,   0
 41, 88856,   0,   0,   0,   0,   0, -99,   0,   0,   0,   0,   0,   0,   0,   0,   0,   0,   0,   0,  91,   9,   3,  -3, 1022, 506, 16435,  91,  91,  91,  91, -154,  15, -562, 55,  18, -83, 23085,   0
 42, 91030,   0,   0,   0,   0,   0, -99,   0,   0,   0,   0,   0,   0,   0,   0,   0,   0,   0,   0,  91,   2,   8,   7, 1037, 562, 16540,  91,  91,  91,  91, -166,  14, -557, 83,  18, -83, 23225,   0
 43, 93202,   0,   0,   0,   0,   0, -99,   0,   0,   0,   0,   0,   0,   0,   0,   0,   0,   0,   0,  91,  17,   7,   3, 1080, 605, 16458,  91,  91,  91,  91, -166,  14, -557, 87,  18, -83, 23225,   0
 44, 95548,   0,   0,   0,   0,   0, -99,   0,   0,   0,   0,   0,   0,   0,   0,   0,   0,   0,   0,  91,   9,  -9,  -1, 978, 546, 16350,  91,  91,  91,  91, -168,  18, -556, 63,  18, -83, 23047,   0
 45, 97721,   0,   0,   0,   0,   0, -99,   0,   0,   0,   0,   0,   0,   0,   0,   0,   0,   0,   0,  91,  -8,   9,  -7, 1089, 493, 16458,  91,  91,  91,  91, -168,  18, -556, 70,  18, -82, 23047,   0
 46, 99895,   0,   0,   0,   0,   0, -99,   0,   0,   0,   0,   0,   0,   0,   0,   0,   0,   0,   0,  91,  -4,   4,  -9, 1068, 605, 16381,  91,  91,  91,  91, -168,  18, -556, 56,  18, -82, 23047,   0
 47, 102128,   0,   0,   0,   0,   0, -99,   0,   0,   0,   0,   0,   0,   0,   0,   0,   0,   0,   0,  91,   1,   2,   0, 1076, 557, 16509,  91,  91,  91,  91, -156,  18, -573, 76,  18, -82, 22937,   0
 48, 104260,   0,   0,   0,   0,   0, -99,   0,   0,   0,   0,   0,   0,   0,   0,   0,   0,   0,   0,  91,  13,  -7,   8, 1159, 596, 16427,  91,  91,  91,  91, -156,  18, -573, 73,  18, -82, 22937,   0
 49, 106432,   0,   0,   0,   0,   0, -99,   0,   0,   0,   0,   0,   0,   0,   0,   0,   0,   0,   0,  91,   0,   4,  -5, 1021, 594, 16338,  91,  91,  91,  91, -152,  12, -579, 48,  18, -81, 23226,   0
 50, 108605,   0,   0,   0,   0,   0, -99,   0,   0,   0,   0,   0,   0,   0,   0,   0,   0,   0,   0,  91,  10,  -5, -11, 1042, 518, 16408,  91,  91,  91,  91, -152,  12, -579, 44,  18, -81, 23226,   0
 51, 110954,   0,   0,   0,   0,   0, -99,   0,   0,   0,   0,   0,   0,   0,   0,   0,   0,   0,   0,  91,  11,   6,  14, 1056, 613, 16482,  91,  91,  91,  91, -155,  12, -556, 60,  18, -81, 23258,   0
 52, 113124,   0,   0,   0,   0,   0, -99,   0,   0,   0,   0,   0,   0,   0,   0,   0,   0,   0,   0,  91,   3,  -5,  -5, 1032, 657, 16466,  91,  91,  91,  91, -155,  12, -556, 69,  18, -80, 23257,   0
 53, 115299,   0,   0,   0,   0,   0, -99,   0,   0,   0,   0,   0,   0,   0,   0,   0,   0,   0,   0,  91,   8,   2,   3, 1095, 641, 16447,  91,  91,  91,  91, -169,  14, -563, 72,  18, -80, 23219,   0
 54, 117511,   0,   0,   0,   0,   0, -99,   0,   0,   0,   0,   0,   0,   0,   0,   0,   0,   0,   0,  91,  11,  -7,   4, 1057, 593, 16318,  91,  91,  91,  91, -169,  14, -563, 42,  18, -80, 23219,   0
 55, 119621,   0,   0,   0,   0,   0, -99,   0,   0,   0,   0,   0,   0,   0,   0,   0,   0,   0,   0,  91,   3,   7,   1, 1130, 676, 16509,  91,  91,  91,  91, -150,   7, -576, 64,  19, -80, 23466,   0
 56, 121795,   0,   0,   0,   0,   0, -99,   0,   0,   0,   0,   0,   0,   0,   0,   0,   0,   0,   0,  91,   5,  -2,   3, 1148, 568, 16287,  91,  91,  91,  91, -150,   7, -576, 27,  19, -79, 23466,   0
 57, 123967,   0,   0,   0,   0,   0, -99,   0,   0,   0,   0,   0,   0,   0,   0,   0,   0,   0,   0,  91,  -3,  -8,   0, 1080, 613, 16357,  91,  91,  91,  91, -154,  15, -556, 14,  19, -79, 23098,   0
 58, 126317,   0,   0,   0,   0,   0, -100,   0,   0,   0,   0,   0,   0,   0,   0,   0,   0,   0,   0,  91,   2,   1,  13, 1095, 720, 16396,  91,  91,  91,  91, -154,  15, -556, 12,  19, -79, 23098,   0
 59, 128486,   0,   0,   0,   0,   0, -99,   0,   0,   0,   0,   0,   0,   0,   0,   0,   0,   0,   0,  91,  -7, -14,  -9, 1124, 568, 16388,  91,  91,  91,  91, -153,   8, -560, 9,  19, -78, 23443,   0
 60, 130661,   0,   0,   0,   0,   0, -99,   0,   0,   0,   0,   0,   0,   0,   0,   0,   0,   0,   0,  91,  13,   3,   0, 1024, 713, 16385,  91,  91,  91,  91, -153,   8, -560, 5,  19, -78, 23442,   0
 61, 132893,   0,   0,   0,   0,   0, -99,   0,   0,   0,   0,   0,   0,   0,   0,   0,   0,   0,   0,  91,  -6,  -7,   5, 1112, 600, 16357,  91,  91,  91,  91, -150,  11, -564, -4,  19, -78, 23290,   0
 62, 135007,   0,   0,   0,   0,   0, -100,   0,   0,   0,   0,   0,   0,   0,   0,   0,   0,   0,   0,  91,  -2,   0,   6, 973, 610, 16401,  91,  91,  91,  91, -150,  11, -564, -1,  19, -77, 23290,   0
 63, 137179,   0,   0,   0,   0,   0, -100,   0,   0,   0,   0,   0,   0,   0,   0,   0,   0,   0,   0,  91,  -9,  -5,   5, 1035, 677, 16459,  91,  91,  91,  91, -150,  11, -564, 14,  19, -77, 23289,   0
 64, 139349,   0,   0,   0,   0,   0, -99,   0,   0,   0,   0,   0,   0,   0,   0,   0,   0,   0,   0,  91,  -2,  -5,   0, 1109, 577, 16334,  91,  91,  91,  91, -150,  11, -564, -2,  19, -77, 23289,   0
 65, 141699,   0,   0,   0,   0,   0, -100,   0,   0,   0,   0,   0,   0,   0,   0,   0,   0,   0,   0,  91,  -7, -12,   7, 1071, 657, 16486,  91,  91,  91,  91, -150,  11, -564, 21,  19, -77, 23289,   0
 66, 143869,   0,   0,   0,   0,   0, -99,   0,   0,   0,   0,   0,   0,   0,   0,   0,   0,   0,   0,  91, -16,   8, -10, 1146, 648, 16489,  91,  91,  91,  91, -154,  14, -569, 42,  19, -76, 23159,   0
 67, 146043,   0,   0,   0,   0,   0, -99,   0,   0,   0,   0,   0,   0,   0,   0,   0,   0,   0,   0,  91,  -3,  -1,  -5, 1140, 540, 16548,  91,  91,  91,  91, -154,  14, -569, 75,  19, -76, 23159,   0
 68, 148276,   0,   0,   0,   0,   0, -99,   0,   0,   0,   0,   0,   0,   0,   0,   0,   0,   0,   0,  91,  -9,   9,  -5, 1089, 533, 16365,  91,  91,  91,  91, -151,  13, -568, 56,  19, -76, 23179,   0
 69, 150386,   0,   0,   0,   0,   0, -99,   0,   0,   0,   0,   0,   0,   0,   0,   0,   0,   0,   0,  91,  -6,   0,   7, 1152, 580, 16396,  91,  91,  91,  91, -151,  13, -568, 48,  19, -76, 23179,   0
 70, 152561,   0,   0,   0,   0,   0, -99,   0,   0,   0,   0,   0,   0,   0,   0,   0,   0,   0,   0,  91,  -1,  14,   9, 1011, 462, 16315,  91,  91,  91,  91, -148,  12, -563, 21,  19, -75, 23232,   0
 71, 154732,   0,   0,   0,   0,   0, -99,   0,   0,   0,   0,   0,   0,   0,   0,   0,   0,   0,   0,  91,  -4,   0, -12, 1167, 632, 16310,  91,  91,  91,  91, -148,  12, -563, -2,  19, -75, 23232,   0
 72, 157079,   0,   0,   0,   0,   0, -99,   0,   0,   0,   0,   0,   0,   0,   0,   0,   0,   0,   0,  91,  -4,  -1,   1, 1135, 656, 16396,  91,  91,  91,  91, -155,   8, -546, -1,  19, -75, 23462,   0
 73, 159253,   0,   0,   0,   0,   0, -99,   0,   0,   0,   0,   0,   0,   0,   0,   0,   0,   0,   0,  91,   1,   8,   5, 1002, 510, 16404,  91,  91,  91,  91, -155,   8, -546, 1,  19, -75, 23463,   0
 74, 161424,   0,   0,   0,   0,   0, -99,   0,   0,   0,   0,   0,   0,   0,   0,   0,   0,   0,   0,  91,  -7,   0,  -9, 1033, 590, 16354,  91,  91,  91,  91, -150,   2, -543, -8,  19, -74, 23749,   0
 75, 163659,   0,   0,   0,   0,   0, -99,   0,   0,   0,   0,   0,   0,   0,   0,   0,   0,   0,   0,  91,  -7,   3,   3, 991, 514, 16326,  91,  91,  91,  91, -150,   2, -543, -23,  19, -74, 23749,   0
 76, 165770,   0,   0,   0,   0,   0, -99,   0,   0,   0,   0,   0,   0,   0,   0,   0,   0,   0,   0,  91,  -1,   8, -10, 1134, 453, 16337,  91,  91,  91,  91, -154,   5, -557, -33,  19, -74, 23605,   0
 77, 167944,   0,   0,   0,   0,   0, -99,   0,   0,   0,   0,   0,   0,   0,   0,   0,   0,   0,   0,  91,  -5,   7,   8, 1096, 581, 16458,  91,  91,  91,  91, -154,   5, -557, -12,  19, -74, 23605,   0
 78, 170115,   0,   0,   0,   0,   0, -99,   0,   0,   0,   0,   0,   0,   0,   0,   0,   0,   0,   0,  91,   1,  -4,   0, 1108, 557, 16404,  91,  91,  91,  91, -163,  10, -554, -7,  19, -74, 23386,   0
 79, 172463,   0,   0,   0,   0,   0, -99,   0,   0,   0,   0,   0,   0,   0,   0,   0,   0,   0,   0,  91,   0,   7, -12, 990, 562, 16381,  91,  91,  91,  91, -163,  10, -554, -9,  19, -73, 23386,   0
 80, 174635,   0,   0,   0,   0,   0, -99,   0,   0,   0,   0,   0,   0,   0,   0,   0,   0,   0,   0,  91,   6,  -1,  -6, 1129, 532, 16318,  91,  91,  91,  91, -163,  10, -554, -26,  19, -73, 23386,   0
 81, 176808,   0,   0,   0,   0,   0, -99,   0,   0,   0,   0,   0,   0,   0,   0,   0,   0,   0,   0,  91,  12,  -3,  -6, 1111, 429, 16302,  91,  91,  91,  91, -163,  10, -554, -44,  19, -73, 23387,   0
 82, 179054,   0,   0,   0,   0,   0, -99,   0,   0,   0,   0,   0,   0,   0,   0,   0,   0,   0,   0,  91,   7,   2,   1, 1046, 470, 16400,  91,  91,  91,  91, -163,  10, -554, -35,  19, -73, 23387,   0
 83, 181163,   0,   0,   0,   0,   0, -99,   0,   0,   0,   0,   0,   0,   0,   0,   0,   0,   0,   0,  91,  11,  -4,  -3, 1053, 537, 16400,  91,  91,  91,  91, -167,  10, -549, -28,  19, -73, 23391,   0
 84, 183337,   0,   0,   0,   0,   0, -99,   0,   0,   0,   0,   0,   0,   0,   0,   0,   0,   0,   0,  91,   1,   0,   0, 1013, 590, 16412,  91,  91,  91,  91, -167,  10, -549, -19,  19, -73, 23390,   0
 85, 185511,   0,   0,   0,   0,   0, -99,   0,   0,   0,   0,   0,   0,   0,   0,   0,   0,   0,   0,  91,   2,  -5,   2, 1061, 609, 16264,  91,  91,  91,  91, -163,  12, -563, -48,  19, -72, 23291,   0
 86, 187856,   0,   0,   0,   0,   0, -99,   0,   0,   0,   0,   0,   0,   0,   0,   0,   0,   0,   0,  91,  -1,  -5,  -6, 962, 590, 16397,  91,  91,  91,  91, -163,  12, -563, -40,  19, -72, 23291,   0
 87, 190030,   0,   0,   0,   0,   0, -99,   0,   0,   0,   0,   0,   0,   0,   0,   0,   0,   0,   0,  91,   9,   4,   0, 973, 610, 16544,  91,  91,  91,  91, -151,  10, -567, 4,  20, -72, 23337,   0
 88, 192202,   0,   0,   0,   0,   0, -99,   0,   0,   0,   0,   0,   0,   0,   0,   0,   0,   0,   0,  91,   0,   1, -10, 977, 606, 16424,  91,  91,  91,  91, -151,  10, -567, 11,  20, -71, 23336,   0
 89, 194426,   0,   0,   0,   0,   0, -99,   0,   0,   0,   0,   0,   0,   0,   0,   0,   0,   0,   0,  91,   8,   0,  -8, 1056, 601, 16509,  91,  91,  91,  91, -161,  14, -553, 39,  20, -71, 23165,   0
 90, 196537,   0,   0,   0,   0,   0, -99,   0,   0,   0,   0,   0,   0,   0,   0,   0,   0,   0,   0,  91,   1,  -3,   7, 975, 734, 16447,  91,  91,  91,  91, -161,  14, -553, 47,  20, -71, 23164,   0
 91, 198711,   0,   0,   0,   0,   0, -99,   0,   0,   0,   0,   0,   0,   0,   0,   0,   0,   0,   0,  91,   4,   6,   5, 1037, 590, 16451,  91,  91,  91,  91, -153,  17, -565, 54,  20, -71, 22990,   0
 92, 200785,   0,   0,   0,   0,   0,   0,   0,   0,   0,   0,   0,   0,   0,   0,   0,   0,   0,   0,   0,   0,  -8,  14, 1042, 530, 16408,  48,  48,  48,  48, -153,  17, -565, 50,  20, -70, 22990,   0
 93, 203127,   0,   0,   0,   0,   0,   0,   0,   0,   0,   0,   0,   0,   0,   0,   0,   0,   0,   0,   0,   2,  11,   1, 1084, 625, 16404,  48,  48,  48,  48, -157,  10, -565, 45,  20, -70, 23334,   0
 94, 205300,   0,   0,   0,   0,   0,   0,   0,   0,   0,   0,   0,   0,   0,   0,   0,   0,   0,   0,   0,   5,   7,   2, 1071, 693, 16350,  48,  48,  48,  48, -157,  10, -565, 27,  20, -70, 23334,   0
 95, 207473,   0,   0,   0,   0,   0,   0,   0,   0,   0,   0,   0,   0,   0,   0,   0,   0,   0,   0,   0, -13,   1,  -1, 1081, 585, 16349,  48,  48,  48,  48, -160,  16, -546, 12,  20, -70, 23085,   0
 96, 209709,   0,   0,   0,   0,   0,   0,   0,   0,   0,   0,   0,   0,   0,   0,   0,   0,   0,   0,   0,   4,  -7,   8, 1096, 589, 16532,  48,  48,  48,  48, -160,  16, -546, 45,  20, -69, 23085,   0
 97, 211812,   0,   0,   0,   0,   0,   0,   0,   0,   0,   0,   0,   0,   0,   0,   0,   0,   0,   0,   0, -11,   5,   0, 1108, 613, 16451,  48,  48,  48,  48, -145,  17, -577, 53,  20, -69, 22931,   0
 98, 213985,   0,   0,   0,   0,   0,   0,   0,   0,   0,   0,   0,   0,   0,   0,   0,   0,   0,   0,   0,  -2,   0,  -1, 1012, 666, 16397,  48,  48,  48,  48, -145,  17, -577, 46,  20, -69, 22931,   0
 99, 216157,   0,   0,   0,   0,   0,   0,   0,   0,   0,   0,   0,   0,   0,   0,   0,   0,   0,   0,   0,  -1,   7,  -4, 1096, 589, 16392,  48,  48,  48,  48, -145,  17, -577, 39,  20, -68, 22931,   0
100, 218500,   0,   0,   0,   0,   0,   0,   0,   0,   0,   0,   0,   0,   0,   0,   0,   0,   0,   0,   0,  -1,  11,   8, 1111, 605, 16486,  48,  48,  48,  48, -147,   7, -565, 56,  20, -68, 23460,   0
101, 220672,   0,   0,   0,   0,   0,   0,   0,   0,   0,   0,   0,   0,   0,   0,   0,   0,   0,   0,   0,  -3,  -9,   3, 1209, 703, 16419,  48,  48,  48,  48, -147,   7, -565, 54,  21, -68, 23460,   0
102, 222845,   0,   0,   0,   0,   0,   0,   0,   0,   0,   0,   0,   0,   0,   0,   0,   0,   0,   0,   0,   1,   2,  11, 1064, 601, 16513,  48,  48,  48,  48, -152,   6, -565, 76,  21, -68, 23549,   0
103, 225094,   0,   0,   0,   0,   0,   0,   0,   0,   0,   0,   0,   0,   0,   0,   0,   0,   0,   0,   0, -12,  -7,  -5, 1113, 596, 16268,  48,  48,  48,  48, -152,   6, -565, 33,  21, -67, 23549,   0
104, 227061,   0,   0,   0,   0,   0,   0,   0,   0,   0,   0,   0,   0,   0,   0,   0,   0,   0,   0,   0, -11,  -3,   6, 1073, 573, 16439,  48,  48,  48,  48, -171,  16, -558, 39,  21, -67, 23146,   0
105, 229196,   0,   0,   0,   0,   0,   0,   0,   0,   0,   0,   0,   0,   0,   0,   0,   0,   0,   0,   0,   0,  -4,   2, 1128, 540, 16400,  48,  48,  48,  48, -171,  16, -558, 35,  21, -67, 23146,   0
106, 231369,   0,   0,   0,   0,   0,   0,   0,   0,   0,   0,   0,   0,   0,   0,   0,   0,   0,   0,   0,  -1,  -1, -13, 1106, 497, 16349,  48,  48,  48,  48, -157,  14, -565, 19,  21, -67, 23134,   0
107, 233542,   0,   0,   0,   0,   0,   0,   0,   0,   0,   0,   0,   0,   0,   0,   0,   0,   0,   0,   0, -13,   6,   0, 1148, 588, 16404,  48,  48,  48,  48, -157,  14, -565, 19,  21, -67, 23134,   0
108, 235884,   0,   0,   0,   0,   0,   0,   0,   0,   0,   0,   0,   0,   0,   0,   0,   0,   0,   0,   0,   0,   2,   2, 970, 546, 16342,  48,  48,  48,  48, -160,   5, -551, 3,  21, -66, 23579,   0
109, 238056,   0,   0,   0,   0,   0,   0,   0,   0,   0,   0,   0,   0,   0,   0,   0,   0,   0,   0,   0,  -1,   0,  11, 1091, 653, 16497,  48,  48,  48,  48, -160,   5, -551, 29,  21, -66, 23579,   0
110, 240230,   0,   0,   0,   0,   0,   0,   0,   0,   0,   0,   0,   0,   0,   0,   0,   0,   0,   0,   0,   2,   7,  -8, 1134, 476, 16330,  48,  48,  48,  48, -160,  15, -557, 9,  21, -66, 23125,   0
111, 242401,   0,   0,   0,   0,   0,   0,   0,   0,   0,   0,   0,   0,   0,   0,   0,   0,   0,   0,   0,  -1,  -3,  -3, 1089, 545, 16396,  48,  48,  48,  48, -160,  15, -557, 9,  21, -66, 23125,   0
112, 244507,   0,   0,   0,   0,   0,   0,   0,   0,   0,   0,   0,   0,   0,   0,   0,   0,   0,   0,   0,   7,   0,  -8, 1147, 612, 16478,  48,  48,  48,  48, -149,   7, -567, 29,  21, -66, 23457,   0
113, 246680,   0,   0,   0,   0,   0,   0,   0,   0,   0,   0,   0,   0,   0,   0,   0,   0,   0,   0,   0,  -6,  -7,  -5, 1093, 533, 16427,  48,  48,  48,  48, -149,   7, -567, 33,  21, -65, 23457,   0
114, 248853,   0,   0,   0,   0,   0,   0,   0,   0,   0,   0,   0,   0,   0,   0,   0,   0,   0,   0,   0, -11,   4, -12, 1022, 538, 16431,  48,  48,  48,  48, -149,   7, -567, 38,  21, -65, 23457,   0
115, 251195,   0,   0,   0,   0,   0,   0,   0,   0,   0,   0,   0,   0,   0,   0,   0,   0,   0,   0,   0,  -2,  10,  -7, 1173, 500, 16388,  48,  48,  48,  48, -149,  14, -575, 31,  21, -65, 23096,   0
116, 253367,   0,   0,   0,   0,   0,   0,   0,   0,   0,   0,   0,   0,   0,   0,   0,   0,   0,   0,   0,  -7,  -6,  -5, 1026, 454, 16474,  48,  48,  48,  48, -149,  14, -575, 48,  21, -65, 23096,   0
117, 255540,   0,   0,   0,   0,   0,   0,   0,   0,   0,   0,   0,   0,   0,   0,   0,   0,   0,   0,   0,   1,   2,  -2, 1124, 513, 16509,  48,  48,  48,  48, -154,  10, -556, 70,  20, -65, 23326,   0
118, 257784,   0,   0,   0,   0,   0,   0,   0,   0,   0,   0,   0,   0,   0,   0,   0,   0,   0,   0,   0,   7,  13,  14, 1152, 572, 16376,  48,  48,  48,  48, -154,  10, -556, 55,  21, -65, 23326,   0
119, 259886,   0,   0,   0,   0,   0,   0,   0,   0,   0,   0,   0,   0,   0,   0,   0,   0,   0,   0,   0,   4,   7,   7, 1137, 488, 16400,  48,  48,  48,  48, -162,  14, -559, 49,  20, -64, 23204,   0
120, 262059,   0,   0,   0,   0,   0,   0,   0,   0,   0,   0,   0,   0,   0,   0,   0,   0,   0,   0,   0,   4,   3,  -1, 1058, 462, 16478,  48,  48,  48,  48, -162,  14, -559, 63,  20, -64, 23204,   0
121, 264231,   0,   0,   0,   0,   0,   0,   0,   0,   0,   0,   0,   0,   0,   0,   0,   0,   0,   0,   0,   1, -10,  -1, 1045, 554, 16416,  48,  48,  48,  48, -161,  14, -551, 60,  20, -64, 23194,   0
122, 266574,   0,   0,   0,   0,   0,   0,   0,   0,   0,   0,   0,   0,   0,   0,   0,   0,   0,   0,   0,  -3,   0,  -6, 1033, 570, 16435,  48,  48,  48,  48, -161,  14, -551, 61,  20, -64, 23194,   0
123, 268746,   0,   0,   0,   0,   0,   0,   0,   0,   0,   0,   0,   0,   0,   0,   0,   0,   0,   0,   0,   6,   5,   8, 1127, 585, 16528,  48,  48,  48,  48, -154,  10, -575, 86,  20, -64, 23323,   0
124, 270919,   0,   0,   0,   0,   0,   0,   0,   0,   0,   0,   0,   0,   0,   0,   0,   0,   0,   0,   0,   1,  -8,   5, 1068, 589, 16544,  48,  48,  48,  48, -154,  10, -575, 112,  20, -63, 23323,   0
125, 273168,   0,   0,   0,   0,   0,   0,   0,   0,   0,   0,   0,   0,   0,   0,   0,   0,   0,   0,   0,   1,   8,   0, 968, 678, 16436,  48,  48,  48,  48, -156,   7, -555, 105,  21, -63, 23489,   0
126, 275144,   0,   0,   0,   0,   0,   0,   0,   0,   0,   0,   0,   0,   0,   0,   0,   0,   0,   0,   0,  11,  11,   3, 1041, 558, 16443,  48,  48,  48,  48, -156,   7, -555, 102,  21, -63, 23489,   0
127, 277270,   0,   0,   0,   0,   0,   0,   0,   0,   0,   0,   0,   0,   0,   0,   0,   0,   0,   0,   0,  -9,  -7,   0, 1012, 662, 16529,  48,  48,  48,  48, -154,   9, -569, 121,  21, -63, 23362,   0
128, 279443,   0,   0,   0,   0,   0,   0,   0,   0,   0,   0,   0,   0,   0,   0,   0,   0,   0,   0,   0,   5,  -5,  -6, 1041, 538, 16564,  48,  48,  48,  48, -154,   9, -569, 146,  21, -62, 23362,   0
129, 281616,   0,   0,   0,   0,   0,   0,   0,   0,   0,   0,   0,   0,   0,   0,   0,   0,   0,   0,   0,  -6,   3,   0, 1025, 574, 16521,  48,  48,  48,  48, -154,   9, -569, 156,  21, -62, 23362,   0
130, 283958,   0,   0,   0,   0,   0,   0,   0,   0,   0,   0,   0,   0,   0,   0,   0,   0,   0,   0,   0,  -4,   7,  11, 984, 650, 16611,  48,  48,  48,  48, -160,  13, -560, 188,  21, -62, 23238,   0
131, 286130,   0,   0,   0,   0,   0,   0,   0,   0,   0,   0,   0,   0,   0,   0,   0,   0,   0,   0,   0,  -4,   0,  -1, 1037, 558, 16412,  48,  48,  48,  48, -160,  13, -560, 164,  21, -62, 23238,   0
132, 288303,   0,   0,   0,   0,   0,   0,   0,   0,   0,   0,   0,   0,   0,   0,   0,   0,   0,   0,   0,   0,   8,   3, 1037, 645, 16295,  48,  48,  48,  48, -161,  11, -571, 114,  21, -61, 23330,   0
133, 290475,   0,   0,   0,   0,   0,   0,   0,   0,   0,   0,   0,   0,   0,   0,   0,   0,   0,   0,   0,  -2,   1,  -2, 1014, 606, 16237,  48,  48,  48,  48, -161,  11, -571, 57,  21, -61, 23330,   0
134, 292581,   0,   0,   0,   0,   0,   0,   0,   0,   0,   0,   0,   0,   0,   0,   0,   0,   0,   0,   0,  -5,   1,   5, 1072, 593, 16396,  48,  48,  48,  48, -160,  16, -560, 50,  21, -61, 23091,   0
135, 294754,   0,   0,   0,   0,   0,   0,   0,   0,   0,   0,   0,   0,   0,   0,   0,   0,   0,   0,   0,  -8,  -1,  -8, 1052, 577, 16490,  48,  48,  48,  48, -160,  16, -560, 67,  21, -61, 23091,   0
136, 296927,   0,   0,   0,   0,   0,   0,   0,   0,   0,   0,   0,   0,   0,   0,   0,   0,   0,   0,   0,   3,  -1,  -1, 973, 614, 16412,  48,  48,  48,  48, -162,   4, -554, 62,  21, -61, 23670,   0
137, 299270,   0,   0,   0,   0,   0,   0,   0,   0,   0,   0,   0,   0,   0,   0,   0,   0,   0,   0,   0, -13,   1,  -4, 1012, 650, 16381,  48,  48,  48,  48, -162,   4, -554, 49,  21, -60, 23670,   0
138, 301441,   0,   0,   0,   0,   0,   0,   0,   0,   0,   0,   0,   0,   0,   0,   0,   0,   0,   0,   0,   4,   0,  17, 1017, 582, 16435,  48,  48,  48,  48, -153,   8, -564, 53,  21, -60, 23424,   0
139, 303615,   0,   0,   0,   0,   0,   0,   0,   0,   0,   0,   0,   0,   0,   0,   0,   0,   0,   0,   0, -12,  -8,   1, 1025, 653, 16272,  48,  48,  48,  48, -153,   8, -564, 14,  21, -60, 23424,   0
140, 305858,   0,   0,   0,   0,   0,   0,   0,   0,   0,   0,   0,   0,   0,   0,   0,   0,   0,   0,   0,   0,   9,   3, 1065, 525, 16392,  48,  48,  48,  48, -143,  12, -551, 12,  21, -60, 23193,   0
141, 307960,   0,   0,   0,   0,   0,   0,   0,   0,   0,   0,   0,   0,   0,   0,   0,   0,   0,   0,   0, -12,  -1,  -5, 1120, 553, 16396,  48,  48,  48,  48, -143,  12, -551, 11,  21, -59, 23193,   0
142, 310133,   0,   0,   0,   0,   0,   0,   0,   0,   0,   0,   0,   0,   0,   0,   0,   0,   0,   0,   0, -20,  -6,  -3, 1128, 553, 16458,  48,  48,  48,  48, -149,  16, -562, 27,  21, -59, 23033,   0
143, 312305,   0,   0,   0,   0,   0,   0,   0,   0,   0,   0,   0,   0,   0,   0,   0,   0,   0,   0,   0,   3,   5,   7, 1103, 633, 16466,  48,  48,  48,  48, -149,  16, -562, 41,  21, -59, 23032,   0
144, 314648,   0,   0,   0,   0,   0,   0,   0,   0,   0,   0,   0,   0,   0,   0,   0,   0,   0,   0,   0,   0,   1,  -8, 1145, 496, 16411,  48,  48,  48,  48, -157,  17, -563, 40,  21, -59, 23021,   0
145, 316820,   0,   0,   0,   0,   0,   0,   0,   0,   0,   0,   0,   0,   0,   0,   0,   0,   0,   0,   0, -14,   3,  -6, 1055, 653, 16567,  48,  48,  48,  48, -157,  17, -563, 78,  21, -59, 23021,   0
146, 318993,   0,   0,   0,   0,   0,   0,   0,   0,   0,   0,   0,   0,   0,   0,   0,   0,   0,   0,   0,  -6,   7,   8, 1101, 517, 16513,  48,  48,  48,  48, -157,  17, -563, 97,  21, -58, 23021,   0
147, 321242,   0,   0,   0,   0,   0,   0,   0,   0,   0,   0,   0,   0,   0,   0,   0,   0,   0,   0,   0,   1,  -2,   7, 1042, 522, 16423,  48,  48,  48,  48, -147,  12, -582, 90,  21, -58, 23191,   0
148, 323208,   0,   0,   0,   0,   0,   0,   0,   0,   0,   0,   0,   0,   0,   0,   0,   0,   0,   0,   0,  -7,  -7,   5, 1013, 614, 16424,  48,  48,  48,  48, -147,  12, -582, 85,  21, -58, 23191,   0
149, 325343,   0,   0,   0,   0,   0,   0,   0,   0,   0,   0,   0,   0,   0,   0,   0,   0,   0,   0,   0,  -5,   2, -10, 1080, 589, 16392,  48,  48,  48,  48, -166,  17, -574, 72,  21, -58, 23054,   0
150, 327516,   0,   0,   0,   0,   0,   0,   0,   0,   0,   0,   0,   0,   0,   0,   0,   0,   0,   0,   0,  -3,   2,  -1, 943, 539, 16369,  48,  48,  48,  48, -166,  17, -574, 55,  21, -58, 23054,   0
151, 329689,   0,   0,   0,   0,   0,   0,   0,   0,   0,   0,   0,   0,   0,   0,   0,   0,   0,   0,   0,   5,   7,   3, 1046, 466, 16435,  48,  48,  48,  48, -157,   3, -552, 58,  21, -58, 23696,   0
152, 332032,   0,   0,   0,   0,   0,   0,   0,   0,   0,   0,   0,   0,   0,   0,   0,   0,   0,   0,   0,  -2,   4,   0, 1041, 546, 16412,  48,  48,  48,  48, -157,   3, -552, 54,  21, -57, 23696,   0
153, 334204,   0,   0,   0,   0,   0,   0,   0,   0,   0,   0,   0,   0,   0,   0,   0,   0,   0,   0,   0,  -3,  -3,   3, 1030, 546, 16322,  48,  48,  48,  48, -161,   9, -565, 29,  21, -57, 23421,   0
154, 336378,   0,   0,   0,   0,   0,   0,   0,   0,   0,   0,   0,   0,   0,   0,   0,   0,   0,   0,   0,   8,  -4, -11, 1054, 529, 16217,  48,  48,  48,  48, -161,   9, -565, -19,  21, -57, 23421,   0
155, 338549,   0,   0,   0,   0,   0,   0,   0,   0,   0,   0,   0,   0,   0,   0,   0,   0,   0,   0,   0,   1,  -5,   0, 1062, 505, 16225,  48,  48,  48,  48, -156,  12, -546, -58,  21, -57, 23263,   0
156, 340655,   0,   0,   0,   0,   0,   0,   0,   0,   0,   0,   0,   0,   0,   0,   0,   0,   0,   0,   0,  11,   0,   3, 1010, 554, 16276,  48,  48,  48,  48, -156,  12, -546, -78,  21, -57, 23263,   0
157, 342827,   0,   0,   0,   0,   0,   0,   0,   0,   0,   0,   0,   0,   0,   0,   0,   0,   0,   0,   0,  -3,   1,   0, 960, 459, 16268,  48,  48,  48,  48, -159,  10, -555, -97,  21, -57, 23371,   0
158, 345000,   0,   0,   0,   0,   0,   0,   0,   0,   0,   0,   0,   0,   0,   0,   0,   0,   0,   0,   0,  10,   3,   2, 995, 506, 16206,  48,  48,  48,  48, -159,  10, -555, -129,  21, -56, 23371,   0
159, 347343,   0,   0,   0,   0,   0,   0,   0,   0,   0,   0,   0,   0,   0,   0,   0,   0,   0,   0,   0,  -1,  10,  -1, 931, 559, 16257,  48,  48,  48,  48, -153,   2, -554, -143,  21, -56, 23712,   0
160, 349515,   0,   0,   0,   0,   0,   0,   0,   0,   0,   0,   0,   0,   0,   0,   0,   0,   0,   0,   0,   4,  12,   5, 1138, 440, 16225,  48,  48,  48,  48, -153,   2, -554, -163,  21, -56, 23712,   0
161, 351687,   0,   0,   0,   0,   0,   0,   0,   0,   0,   0,   0,   0,   0,   0,   0,   0,   0,   0,   0,  13,   9,  -2, 1203, 576, 16501,  48,  48,  48,  48, -153,   2, -554, -110,  21, -56, 23712,   0
162, 353932,   0,   0,   0,   0,   0,   0,   0,   0,   0,   0,   0,   0,   0,   0,   0,   0,   0,   0,   0,   9,  -5, -11, 1134, 441, 16314,  48,  48,  48,  48, -150,  12, -549, -113,  21, -56, 23205,   0
163, 356033,   0,   0,   0,   0,   0,   0,   0,   0,   0,   0,   0,   0,   0,   0,   0,   0,   0,   0,   0,  15,  12,  -5, 1002, 486, 16451,  48,  48,  48,  48, -150,  12, -549, -80,  21, -56, 23205,   0
164, 358206,   0,   0,   0,   0,   0,   0,   0,   0,   0,   0,   0,   0,   0,   0,   0,   0,   0,   0,   0,   5,  10,   2, 1060, 645, 16455,  48,  48,  48,  48, -146,  17, -566, -52,  21, -55, 22953,   0
165, 360379,   0,   0,   0,   0,   0,   0,   0,   0,   0,   0,   0,   0,   0,   0,   0,   0,   0,   0,   0,  11, -17, -21, 1071, 649, 16544,  48,  48,  48,  48, -146,  17, -566, -5,  21, -55, 22953,   0
166, 362722,   0,   0,   0,   0,   0,   0,   0,   0,   0,   0,   0,   0,   0,   0,   0,   0,   0,   0,   0,   6,  16,   1, 1124, 780, 16633,  48,  48,  48,  48, -158,   9, -554, 56,  21, -55, 23395,   0
167, 364894,   0,   0,   0,   0,   0,   0,   0,   0,   0,   0,   0,   0,   0,   0,   0,   0,   0,   0,   0,  10,   2,   1, 1067, 645, 16606,  48,  48,  48,  48, -158,   9, -554, 102,  22, -55, 23395,   0
168, 367067,   0,   0,   0,   0,   0,   0,   0,   0,   0,   0,   0,   0,   0,   0,   0,   0,   0,   0,   0,   5,  -7,  -4, 1131, 569, 16688,  48,  48,  48,  48, -165,  12, -559, 161,  22, -54, 23283,   0
169, 369316,   0,   0,   0,   0,   0,   0,   0,   0,   0,   0,   0,   0,   0,   0,   0,   0,   0,   0,   0,  11,   9,   1, 1057, 749, 16770,  48,  48,  48,  48, -165,  12, -559, 232,  22, -54, 23282,   0
170, 371292,   0,   0,   0,   0,   0,   0,   0,   0,   0,   0,   0,   0,   0,   0,   0,   0,   0,   0,   0,   0,  -6,  -1, 1118, 625, 16641,  48,  48,  48,  48, -148,  12, -561, 260,  22, -54, 23183,   0
171, 373417,   0,   0,   0,   0,   0,   0,   0,   0,   0,   0,   0,   0,   0,   0,   0,   0,   0,   0,   0,   0,   1,  -1, 1071, 585, 16742,  48,  48,  48,  48, -148,  12, -561, 309,  22, -54, 23183,   0
172, 375590,   0,   0,   0,   0,   0,   0,   0,   0,   0,   0,   0,   0,   0,   0,   0,   0,   0,   0,   0,   0,   0,  -2, 1014, 706, 16770,  48,  48,  48,  48, -152,  15, -547, 357,  22, -53, 23090,   0
173, 377763,   0,   0,   0,   0,   0,   0,   0,   0,   0,   0,   0,   0,   0,   0,   0,   0,   0,   0,   0,  -2, -11,   1, 1035, 686, 16599,  48,  48,  48,  48, -152,  15, -547, 355,  22, -53, 23090,   0
174, 380105,   0,   0,   0,   0,   0,   0,   0,   0,   0,   0,   0,   0,   0,   0,   0,   0,   0,   0,   0,   1,  -2,   2, 1063, 665, 16634,  48,  48,  48,  48, -162,  17, -548, 362,  22, -53, 23038,   0
175, 382278,   0,   0,   0,   0,   0,   0,   0,   0,   0,   0,   0,   0,   0,   0,   0,   0,   0,   0,   0,   0,  -6,  -3, 1050, 673, 16719,  48,  48,  48,  48, -162,  17, -548, 389,  22, -53, 23038,   0
176, 384451,   0,   0,   0,   0,   0,   0,   0,   0,   0,   0,   0,   0,   0,   0,   0,   0,   0,   0,   0, -14,   5,   5, 1004, 646, 16568,  48,  48,  48,  48, -162,  17, -548, 374,  22, -52, 23038,   0
177, 386623,   0,   0,   0,   0,   0,   0,   0,   0,   0,   0,   0,   0,   0,   0,   0,   0,   0,   0,   0, -20,   2,   3, 1128, 608, 16400,  48,  48,  48,  48, -162,  17, -548, 319,  22, -52, 23038,   0
178, 388728,   0,   0,   0,   0,   0,   0,   0,   0,   0,   0,   0,   0,   0,   0,   0,   0,   0,   0,   0, -11,   1,   4, 991, 706, 16533,  48,  48,  48,  48, -162,  17, -548, 306,  23, -52, 23038,   0
179, 390901,   0,   0,   0,   0,   0,   0,   0,   0,   0,   0,   0,   0,   0,   0,   0,   0,   0,   0,   0, -12, -15,  -4, 1099, 685, 16412,  48,  48,  48,  48, -163,  11, -558, 264,  23, -51, 23300,   0
180, 393074,   0,   0,   0,   0,   0,   0,   0,   0,   0,   0,   0,   0,   0,   0,   0,   0,   0,   0,   0, -20,   4,  -2, 1132, 604, 16357,  48,  48,  48,  48, -163,  11, -558, 215,  23, -51, 23300,   0
181, 395417,   0,   0,   0,   0,   0,   0,   0,   0,   0,   0,   0,   0,   0,   0,   0,   0,   0,   0,   0, -20,  -2,   0, 1161, 460, 16341,  48,  48,  48,  48, -156,  14, -571, 169,  23, -51, 23163,   0
182, 397589,   0,   0,   0,   0,   0,   0,   0,   0,   0,   0,   0,   0,   0,   0,   0,   0,   0,   0,   0, -13,  13,  -1, 965, 654, 16261,  48,  48,  48,  48, -156,  14, -571, 110,  23, -51, 23163,   0
183, 399762,   0,   0,   0,   0,   0,   0,   0,   0,   0,   0,   0,   0,   0,   0,   0,   0,   0,   0,   0, -18,   0,   1, 1093, 609, 16287,  48,  48,  48,  48, -156,  18, -568, 67,  23, -51, 22949,   0
184, 402005,   0,   0,   0,   0,   0,   0,   0,   0,   0,   0,   0,   0,   0,   0,   0,   0,   0,   0,   0, -14,  -5,   6, 1081, 645, 16206,  48,  48,  48,  48, -156,  18, -568, 9,  23, -50, 22949,   0
185, 404107,   0,   0,   0,   0,   0,   0,   0,   0,   0,   0,   0,   0,   0,   0,   0,   0,   0,   0,   0, -11,   9,  11, 1015, 585, 16050,  48,  48,  48,  48, -151,  15, -550, -78,  23, -50, 23053,   0
186, 406279,   0,   0,   0,   0,   0,   0,   0,   0,   0,   0,   0,   0,   0,   0,   0,   0,   0,   0,   0, -16,  16,  11, 1083, 473, 16112,  48,  48,  48,  48, -151,  15, -550, -136,  23, -50, 23053,   0
187, 408452,   0,   0,   0,   0,   0,   0,   0,   0,   0,   0,   0,   0,   0,   0,   0,   0,   0,   0,   0, -10,   6,  -7, 1007, 570, 16023,  48,  48,  48,  48, -154,  14, -531, -208,  23, -50, 23124,   0
188, 410795,   0,   0,   0,   0,   0,   0,   0,   0,   0,   0,   0,   0,   0,   0,   0,   0,   0,   0,   0, -12,  13,   4, 920, 575, 16113,  48,  48,  48,  48, -154,  14, -531, -247,  23, -50, 23125,   0
189, 412967,   0,   0,   0,   0,   0,   0,   0,   0,   0,   0,   0,   0,   0,   0,   0,   0,   0,   0,   0, -12,   7,  -1, 1040, 461, 16097,  48,  48,  48,  48, -153,  11, -562, -283,  23, -49, 23279,   0
190, 415140,   0,   0,   0,   0,   0,   0,   0,   0,   0,   0,   0,   0,   0,   0,   0,   0,   0,   0,   0,   3,   1,   0, 1088, 433, 16022,  48,  48,  48,  48, -153,  11, -562, -333,  22, -49, 23279,   0
191, 417389,   0,   0,   0,   0,   0,   0,   0,   0,   0,   0,   0,   0,   0,   0,   0,   0,   0,   0,   0,  -5,   0,   0, 1048, 453, 16077,  48,  48,  48,  48, -152,   7, -577, -361,  22, -49, 23460,   0
192, 419356,   0,   0,   0,   0,   0,   0,   0,   0,   0,   0,   0,   0,   0,   0,   0,   0,   0,   0,   0, -14,   8,  -3, 1076, 433, 16147,  48,  48,  48,  48, -152,   7, -577, -367,  22, -49, 23461,   0
193, 421491,   0,   0,   0,   0,   0,   0,   0,   0,   0,   0,   0,   0,   0,   0,   0,   0,   0,   0,   0,  -3,  -2,   3, 1126, 508, 16197,  48,  48,  48,  48, -152,   7, -577, -360,  22, -49, 23461,   0
194, 423664,   0,   0,   0,   0,   0,   0,   0,   0,   0,   0,   0,   0,   0,   0,   0,   0,   0,   0,   0,   4,   0,  -2, 1024, 470, 16136,  48,  48,  48,  48, -158,  12, -566, -369,  22, -49, 23239,   0
195, 425836,   0,   0,   0,   0,   0,   0,   0,   0,   0,   0,   0,   0,   0,   0,   0,   0,   0,   0,   0,  -5,  -8,  15, 1059, 453, 16342,  48,  48,  48,  48, -158,  12, -566, -324,  22, -49, 23239,   0
196, 428179,   0,   0,   0,   0,   0,   0,   0,   0,   0,   0,   0,   0,   0,   0,   0,   0,   0,   0,   0,   2,   6,   3, 984, 442, 16319,  48,  48,  48,  48, -152,  10, -552, -292,  22, -49, 23307,   0
197, 430351,   0,   0,   0,   0,   0,   0,   0,   0,   0,   0,   0,   0,   0,   0,   0,   0,   0,   0,   0,  10,  -7,   8, 1038, 478, 16466,  48,  48,  48,  48, -152,  10, -552, -228,  22, -49, 23307,   0
198, 432524,   0,   0,   0,   0,   0,   0,   0,   0,   0,   0,   0,   0,   0,   0,   0,   0,   0,   0,   0,  18,  -1,   0, 1081, 525, 16447,  48,  48,  48,  48, -153,  10, -558, -179,  22, -49, 23317,   0
199, 434696,   0,   0,   0,   0,   0,   0,   0,   0,   0,   0,   0,   0,   0,   0,   0,   0,   0,   0,   0,  14,   8, -12, 1037, 510, 16591,  48,  48,  48,  48, -153,  10, -558, -100,  22, -49, 23317,   0
200, 436802,   0,   0,   0,   0,   0,   0,   0,   0,   0,   0,   0,   0,   0,   0,   0,   0,   0,   0,   0,  12,  -2,   6, 1018, 494, 16556,  48,  48,  48,  48, -157,  18, -563, -43,  22, -49, 22975,   0
201, 438975,   0,   0,   0,   0,   0,   0,   0,   0,   0,   0,   0,   0,   0,   0,   0,   0,   0,   0,   0,  12,  10,   4, 1081, 442, 16626,  48,  48,  48,  48, -157,  18, -563, 23,  22, -48, 22975,   0
202, 441147,   0,   0,   0,   0,   0,   0,   0,   0,   0,   0,   0,   0,   0,   0,   0,   0,   0,   0,   0,  12,   0,  -7, 1035, 618, 16704,  48,  48,  48,  48, -142,  12, -563, 98,  22, -48, 23180,   0
203, 443490,   0,   0,   0,   0,   0,   0,   0,   0,   0,   0,   0,   0,   0,   0,   0,   0,   0,   0,   0,  27,   1,   6, 972, 603, 16774,  48,  48,  48,  48, -142,  12, -563, 180,  22, -48, 23180,   0
204, 445662,   0,   0,   0,   0,   0,   0,   0,   0,   0,   0,   0,   0,   0,   0,   0,   0,   0,   0,   0,   3,   4, -10, 1035, 594, 16700,  48,  48,  48,  48, -153,  16, -572, 231,  22, -48, 23025,   0
205, 447836,   0,   0,   0,   0,   0,   0,   0,   0,   0,   0,   0,   0,   0,   0,   0,   0,   0,   0,   0,  16,   1,  -2, 1001, 515, 16762,  48,  48,  48,  48, -153,  16, -572, 290,  22, -48, 23025,   0
206, 450078,   0,   0,   0,   0,   0,   0,   0,   0,   0,   0,   0,   0,   0,   0,   0,   0,   0,   0,   0,   7,   0,   2, 1043, 594, 16727,  48,  48,  48,  48, -148,  12, -565, 331,  22, -48, 23196,   0
207, 452180,   0,   0,   0,   0,   0,   0,   0,   0,   0,   0,   0,   0,   0,   0,   0,   0,   0,   0,   0,  10,  -2,  -2, 1201, 600, 16812,  48,  48,  48,  48, -148,  12, -565, 387,  22, -47, 23196,   0
208, 454352,   0,   0,   0,   0,   0,   0,   0,   0,   0,   0,   0,   0,   0,   0,   0,   0,   0,   0,   0,  17,  -4,  -4, 1070, 685, 16758,  48,  48,  48,  48, -164,  11, -545, 420,  22, -47, 23344,   0
209, 456525,   0,   0,   0,   0,   0,   0,   0,   0,   0,   0,   0,   0,   0,   0,   0,   0,   0,   0,   0,   2,   4,  -3, 1150, 636, 16618,  48,  48,  48,  48, -164,  11, -545, 413,  22, -47, 23343,   0
210, 458868,   0,   0,   0,   0,   0,   0,   0,   0,   0,   0,   0,   0,   0,   0,   0,   0,   0,   0,   0,   2,  -8,   6, 1071, 689, 16548,  48,  48,  48,  48, -164,  11, -545, 389,  22, -47, 23343,   0
211, 461040,   0,   0,   0,   0,   0,   0,   0,   0,   0,   0,   0,   0,   0,   0,   0,   0,   0,   0,   0,  -2,   2,  -9, 1070, 781, 16396,  48,  48,  48,  48, -160,  14, -556, 331,  23, -46, 23173,   0
212, 463213,   0,   0,   0,   0,   0,   0,   0,   0,   0,   0,   0,   0,   0,   0,   0,   0,   0,   0,   0,  -8,  -6,   3, 1152, 600, 16369,  48,  48,  48,  48, -160,  14, -556, 274,  23, -46, 23173,   0
213, 465461,   0,   0,   0,   0,   0,   0,   0,   0,   0,   0,   0,   0,   0,   0,   0,   0,   0,   0,   0,   0,  -1,   0, 1095, 689, 16451,  48,  48,  48,  48, -166,   8, -550, 247,  23, -46, 23495,   0
214, 467438,   0,   0,   0,   0,   0,   0,   0,   0,   0,   0,   0,   0,   0,   0,   0,   0,   0,   0,   0, -12,  -8, -18, 1116, 620, 16396,  48,  48,  48,  48, -166,   8, -550, 211,  23, -46, 23494,   0
215, 469564,   0,   0,   0,   0,   0,   0,   0,   0,   0,   0,   0,   0,   0,   0,   0,   0,   0,   0,   0,  -1,  -8,   7, 1115, 712, 16326,  48,  48,  48,  48, -151,   9, -560, 162,  23, -45, 23377,   0
216, 471737,   0,   0,   0,   0,   0,   0,   0,   0,   0,   0,   0,   0,   0,   0,   0,   0,   0,   0,   0, -12,   2,   9, 1124, 684, 16112,  48,  48,  48,  48, -151,   9, -560, 66,  23, -45, 23377,   0
217, 473910,   0,   0,   0,   0,   0,   0,   0,   0,   0,   0,   0,   0,   0,   0,   0,   0,   0,   0,   0, -11,  -4,   8, 1040, 705, 16144,  48,  48,  48,  48, -161,  19, -562, -6,  23, -45, 22924,   0
218, 476251,   0,   0,   0,   0,   0,   0,   0,   0,   0,   0,   0,   0,   0,   0,   0,   0,   0,   0,   0, -17,  -1,   5, 1127, 692, 16388,  48,  48,  48,  48, -161,  19, -562, -6,  23, -44, 22924,   0
219, 478424,   0,   0,   0,   0,   0,   0,   0,   0,   0,   0,   0,   0,   0,   0,   0,   0,   0,   0,   0,  -3, -11,  -5, 1038, 589, 16163,  48,  48,  48,  48, -163,   5, -552, -62,  23, -44, 23600,   0
220, 480597,   0,   0,   0,   0,   0,   0,   0,   0,   0,   0,   0,   0,   0,   0,   0,   0,   0,   0,   0, -10,   8,  -4, 1041, 673, 16140,  48,  48,  48,  48, -163,   5, -552, -116,  23, -44, 23600,   0
221, 482769,   0,   0,   0,   0,   0,   0,   0,   0,   0,   0,   0,   0,   0,   0,   0,   0,   0,   0,   0,  -7,   5,  13, 1144, 660, 16190,  48,  48,  48,  48, -164,   4, -550, -150,  24, -44, 23653,   0
222, 484875,   0,   0,   0,   0,   0,   0,   0,   0,   0,   0,   0,   0,   0,   0,   0,   0,   0,   0,   0, -17,   4,  -8, 1120, 648, 16143,  48,  48,  48,  48, -164,   4, -550, -189,  24, -43, 23653,   0
223, 487048,   0,   0,   0,   0,   0,   0,   0,   0,   0,   0,   0,   0,   0,   0,   0,   0,   0,   0,   0,  -9,   3,  -5, 1129, 604, 16034,  48,  48,  48,  48, -161,  10, -557, -251,  24, -43, 23343,   0
224, 489220,   0,   0,   0,   0,   0,   0,   0,   0,   0,   0,   0,   0,   0,   0,   0,   0,   0,   0,   0, -13,   6, -12, 1071, 473, 16081,  48,  48,  48,  48, -161,  10, -557, -290,  24, -43, 23344,   0
225, 491563,   0,   0,   0,   0,   0,   0,   0,   0,   0,   0,   0,   0,   0,   0,   0,   0,   0,   0,   0, -12,   4,  18, 1067, 505, 16151,  48,  48,  48,  48, -161,  10, -557, -306,  24, -43, 23344,   0
226, 493735,   0,   0,   0,   0,   0,   0,   0,   0,   0,   0,   0,   0,   0,   0,   0,   0,   0,   0,   0, -19,   5,  -6, 1059, 477, 16264,  48,  48,  48,  48, -164,  15, -555, -291,  23, -43, 23149,   0
227, 495908,   0,   0,   0,   0,   0,   0,   0,   0,   0,   0,   0,   0,   0,   0,   0,   0,   0,   0,   0, -14,   4,   9, 1101, 557, 16326,  48,  48,  48,  48, -164,  15, -555, -263,  23, -43, 23149,   0
228, 498151,   0,   0,   0,   0,   0,   0,   0,   0,   0,   0,   0,   0,   0,   0,   0,   0,   0,   0,   0, -11,  11,  -7, 1020, 438, 16276,  48,  48,  48,  48, -156,   7, -565, -251,  23, -43, 23505,   0
229, 500252,   0,   0,   0,   0,   0,   0,   0,   0,   0,   0,   0,   0,   0,   0,   0,   0,   0,   0,   0,  -6,   9,  10, 1073, 525, 16451,  48,  48,  48,  48, -156,   7, -565, -197,  23, -43, 23505,   0
230, 502426,   0,   0,   0,   0,   0,   0,   0,   0,   0,   0,   0,   0,   0,   0,   0,   0,   0,   0,   0, -10,   8,  -5, 1120, 513, 16505,  48,  48,  48,  48, -151,   6, -581, -138,  23, -42, 23518,   0
231, 504598,   0,   0,   0,   0,   0,   0,   0,   0,   0,   0,   0,   0,   0,   0,   0,   0,   0,   0,   0, -13,   2, -11, 1031, 430, 16322,  48,  48,  48,  48, -151,   6, -581, -134,  23, -42, 23519,   0
232, 506941,   0,   0,   0,   0,   0,   0,   0,   0,   0,   0,   0,   0,   0,   0,   0,   0,   0,   0,   0,   4,   0,  10, 1046, 446, 16633,  48,  48,  48,  48, -157,  10, -568, -51,  23, -42, 23327,   0
233, 509113,   0,   0,   0,   0,   0,   0,   0,   0,   0,   0,   0,   0,   0,   0,   0,   0,   0,   0,   0,   2,  -1,   3, 1035, 350, 16622,  48,  48,  48,  48, -157,  10, -568, 15,  23, -42, 23328,   0
234, 511286,   0,   0,   0,   0,   0,   0,   0,   0,   0,   0,   0,   0,   0,   0,   0,   0,   0,   0,   0,  -1,  -4,  -9, 955, 467, 16564,  48,  48,  48,  48, -157,   5, -559, 57,  23, -42, 23599,   0
235, 513535,   0,   0,   0,   0,   0,   0,   0,   0,   0,   0,   0,   0,   0,   0,   0,   0,   0,   0,   0,   0,   5,  -4, 1058, 446, 16567,  48,  48,  48,  48, -157,   5, -559, 93,  22, -42, 23599,   0
236, 515502,   0,   0,   0,   0,   0,   0,   0,   0,   0,   0,   0,   0,   0,   0,   0,   0,   0,   0,   0,   6,   2,   3, 1077, 493, 16598,  48,  48,  48,  48, -141,  10, -542, 132,  22, -42, 23299,   0
237, 517637,   0,   0,   0,   0,   0,   0,   0,   0,   0,   0,   0,   0,   0,   0,   0,   0,   0,   0,   0,   6,   8,   7, 1033, 438, 16700,  48,  48,  48,  48, -141,  10, -542, 190,  22, -42, 23299,   0
238, 519810,   0,   0,   0,   0,   0,   0,   0,   0,   0,   0,   0,   0,   0,   0,   0,   0,   0,   0,   0,  23,  -1,   6, 1069, 458, 16622,  48,  48,  48,  48, -153,  10, -563, 220,  22, -42, 23353,   0
239, 521982,   0,   0,   0,   0,   0,   0,   0,   0,   0,   0,   0,   0,   0,   0,   0,   0,   0,   0,   0,   6,   5,   0, 965, 575, 16544,  48,  48,  48,  48, -153,  10, -563, 225,  22, -42, 23353,   0
240, 524325,   0,   0,   0,   0,   0,   0,   0,   0,   0,   0,   0,   0,   0,   0,   0,   0,   0,   0,   0,   7,  -2,   3, 1024, 606, 16630,  48,  48,  48,  48, -153,  10, -563, 251,  22, -42, 23353,   0
241, 526497,   0,   0,   0,   0,   0,   0,   0,   0,   0,   0,   0,   0,   0,   0,   0,   0,   0,   0,   0,  15,  12,  -4, 1029, 582, 16478,  48,  48,  48,  48, -156,  12, -566, 235,  22, -42, 23231,   0
242, 528670,   0,   0,   0,   0,   0,   0,   0,   0,   0,   0,   0,   0,   0,   0,   0,   0,   0,   0,   0,   8,   2,  -3, 1013, 582, 16466,  48,  48,  48,  48, -156,  12, -566, 218,  22, -41, 23231,   0
243, 530842,   0,   0,   0,   0,   0,   0,   0,   0,   0,   0,   0,   0,   0,   0,   0,   0,   0,   0,   0,  12,   7,   4, 982, 566, 16455,  48,  48,  48,  48, -156,  16, -570, 201,  23, -41, 23073,   0
244, 532947,   0,   0,   0,   0,   0,   0,   0,   0,   0,   0,   0,   0,   0,   0,   0,   0,   0,   0,   0,  10,  -7,  13, 1160, 564, 16442,  48,  48,  48,  48, -156,  16, -570, 184,  23, -41, 23073,   0
245, 535120,   0,   0,   0,   0,   0,   0,   0,   0,   0,   0,   0,   0,   0,   0,   0,   0,   0,   0,   0,  11,  -5,   1, 1093, 529, 16349,  48,  48,  48,  48, -163,  12, -555, 145,  23, -41, 23285,   0
246, 537292,   0,   0,   0,   0,   0,   0,   0,   0,   0,   0,   0,   0,   0,   0,   0,   0,   0,   0,   0,   5,  -2,   2, 1200, 536, 16396,  48,  48,  48,  48, -163,  12, -555, 124,  23, -41, 23285,   0
247, 539636,   0,   0,   0,   0,   0,   0,   0,   0,   0,   0,   0,   0,   0,   0,   0,   0,   0,   0,   0,  14,   7,   3, 1092, 641, 16400,  48,  48,  48,  48, -153,   7, -559, 107,  23, -41, 23489,   0
248, 541807,   0,   0,   0,   0,   0,   0,   0,   0,   0,   0,   0,   0,   0,   0,   0,   0,   0,   0,   0,  12,   2,   1, 1045, 613, 16365,  48,  48,  48,  48, -153,   7, -559, 85,  23, -40, 23489,   0
249, 543981,   0,   0,   0,   0,   0,   0,   0,   0,   0,   0,   0,   0,   0,   0,   0,   0,   0,   0,   0,   9,  -7, -12, 1139, 644, 16435,  48,  48,  48,  48, -159,   9, -543, 83,  23, -40, 23427,   0
250, 546224,   0,   0,   0,   0,   0,   0,   0,   0,   0,   0,   0,   0,   0,   0,   0,   0,   0,   0,   0,  -1,  -7,  -5, 1001, 666, 16292,  48,  48,  48,  48, -159,   9, -543, 45,  23, -40, 23426,   0
251, 548325,   0,   0,   0,   0,   0,   0,   0,   0,   0,   0,   0,   0,   0,   0,   0,   0,   0,   0,   0,   0,   9,   3, 1140, 596, 16345,  48,  48,  48,  48, -156,  16, -538, 27,  23, -40, 23039,   0
252, 550499,   0,   0,   0,   0,   0,   0,   0,   0,   0,   0,   0,   0,   0,   0,   0,   0,   0,   0,   0,   2,   0,  -3, 976, 746, 16292,  48,  48,  48,  48, -156,  16, -538, -2,  23, -39, 23039,   0
253, 552671,   0,   0,   0,   0,   0,   0,   0,   0,   0,   0,   0,   0,   0,   0,   0,   0,   0,   0,   0,  11, -12,  -7, 1037, 590, 16427,  48,  48,  48,  48, -157,   6, -547, 7,  23, -39, 23532,   0
254, 555013,   0,   0,   0,   0,   0,   0,   0,   0,   0,   0,   0,   0,   0,   0,   0,   0,   0,   0,   0,   6,  -3,  12, 1094, 728, 16404,  48,  48,  48,  48, -157,   6, -547, 9,  24, -39, 23532,   0
255, 557186,   0,   0,   0,   0,   0,   0,   0,   0,   0,   0,   0,   0,   0,   0,   0,   0,   0,   0,   0,   2,   2,   0, 1096, 621, 16361,  48,  48,  48,  48, -151,   6, -569, 0,  24, -39, 23506,   0
256, 559359,   0,   0,   0,   0,   0,   0,   0,   0,   0,   0,   0,   0,   0,   0,   0,   0,   0,   0,   0, -11,  -2,  -4, 992, 662, 16393,  48,  48,  48,  48, -151,   6, -569, 1,  24, -38, 23505,   0
257, 561607,   0,   0,   0,   0,   0,   0,   0,   0,   0,   0,   0,   0,   0,   0,   0,   0,   0,   0,   0,   0,   0,   2, 1095, 685, 16470,  48,  48,  48,  48, -151,   6, -569, 21,  24, -38, 23505,   0
258, 563584,   0,   0,   0,   0,   0,   0,   0,   0,   0,   0,   0,   0,   0,   0,   0,   0,   0,   0,   0,  -4,  11,   5, 1048, 669, 16338,  48,  48,  48,  48, -151,   6, -569, 4,  24, -38, 23505,   0
259, 565710,   0,   0,   0,   0,   0,   0,   0,   0,   0,   0,   0,   0,   0,   0,   0,   0,   0,   0,   0, -17,   3,  -8, 1099, 676, 16322,  48,  48,  48,  48, -151,   6, -569, -13,  24, -38, 23504,   0
260, 567883,   0,   0,   0,   0,   0,   0,   0,   0,   0,   0,   0,   0,   0,   0,   0,   0,   0,   0,   0, -14,   8,  -1, 1172, 528, 16322,  48,  48,  48,  48, -157,   9, -563, -28,  24, -38, 23409,   0
261, 570055,   0,   0,   0,   0,   0,   0,   0,   0,   0,   0,   0,   0,   0,   0,   0,   0,   0,   0,   0, -19,   3,   1, 1131, 604, 16513,  48,  48,  48,  48, -157,   9, -563, 6,  24, -37, 23409,   0
262, 572397,   0,   0,   0,   0,   0,   0,   0,   0,   0,   0,   0,   0,   0,   0,   0,   0,   0,   0,   0, -21,   6,   8, 1148, 580, 16400,  48,  48,  48,  48, -153,  10, -565, 8,  24, -37, 23318,   0
263, 574569,   0,   0,   0,   0,   0,   0,   0,   0,   0,   0,   0,   0,   0,   0,   0,   0,   0,   0,   0, -14,  15, -11, 1092, 573, 16571,  48,  48,  48,  48, -153,  10, -565, 52,  24, -37, 23318,   0
264, 576743,   0,   0,   0,   0,   0,   0,   0,   0,   0,   0,   0,   0,   0,   0,   0,   0,   0,   0,   0, -15,   2,   3, 1227, 527, 16504,  48,  48,  48,  48, -160,  13, -540, 73,  24, -37, 23195,   0
265, 578914,   0,   0,   0,   0,   0,   0,   0,   0,   0,   0,   0,   0,   0,   0,   0,   0,   0,   0,   0, -18,   1,  10, 909, 579, 16685,  48,  48,  48,  48, -160,  13, -540, 137,  24, -37, 23195,   0
266, 581020,   0,   0,   0,   0,   0,   0,   0,   0,   0,   0,   0,   0,   0,   0,   0,   0,   0,   0,   0, -13,  10,   0, 780, 533, 16596,  48,  48,  48,  48, -159,  14, -534, 168,  24, -37, 23186,   0
267, 583193,   0,   0,   0,   0,   0,   0,   0,   0,   0,   0,   0,   0,   0,   0,   0,   0,   0,   0,   0, -14,   6, -15, 893, 624, 16697,  48,  48,  48,  48, -159,  14, -534, 220,  24, -36, 23186,   0
268, 585366,   0,   0,   0,   0,   0,   0,   0,   0,   0,   0,   0,   0,   0,   0,   0,   0,   0,   0,   0,  -8,  13,   1, 893, 663, 16615,  48,  48,  48,  48, -154,  12, -558, 244,  24, -36, 23217,   0
269, 587709,   0,   0,   0,   0,   0,   0,   0,   0,   0,   0,   0,   0,   0,   0,   0,   0,   0,   0,   0,  -1,   6,   4, 1288, 506, 16181,  48,  48,  48,  48, -154,  12, -558, 153,  24, -36, 23218,   0
270, 589881,   0,   0,   0,   0,   0,   0,   0,   0,   0,   0,   0,   0,   0,   0,   0,   0,   0,   0,   0,  -3,  -8,  -4, 1287, 519, 16450,  48,  48,  48,  48, -162,   8, -549, 145,  24, -36, 23440,   0
271, 592054,   0,   0,   0,   0,   0,   0,   0,   0,   0,   0,   0,   0,   0,   0,   0,   0,   0,   0,   0,   2,  -5,  17, 1362, 589, 16286,  48,  48,  48,  48, -162,   8, -549, 96,  24, -36, 23440,   0
272, 594296,   0,   0,   0,   0,   0,   0,   0,   0,   0,   0,   0,   0,   0,   0,   0,   0,   0,   0,   0,  -4,   1,  -2, 794, 441, 16393,  48,  48,  48,  48, -156,  12, -564, 82,  24, -36, 23258,   0
273, 596398,   0,   0,   0,   0,   0,   0,   0,   0,   0,   0,   0,   0,   0,   0,   0,   0,   0,   0,   0,  -8,  -3,  12, 924, 403, 16509,  48,  48,  48,  48, -156,  12, -564, 100,  24, -36, 23258,   0
274, 598571,   0,   0,   0,   0,   0,   0,   0,   0,   0,   0,   0,   0,   0,   0,   0,   0,   0,   0,   0,  -2,   1,   8, 803, 333, 16382,  48,  48,  48,  48, -156,  12, -564, 83,  23, -36, 23259,   0
275, 600744,   0,   0,   0,   0,   0,   0,   0,   0,   0,   0,   0,   0,   0,   0,   0,   0,   0,   0,   0,   4,   7,   0, 893, 388, 16354,  48,  48,  48,  48, -164,  14, -560, 62,  23, -36, 23204,   0
276, 603087,   0,   0,   0,   0,   0,   0,   0,   0,   0,   0,   0,   0,   0,   0,   0,   0,   0,   0,   0,   3,  -1,  -9, 1232, 547, 16306,  48,  48,  48,  48, -164,  14, -560, 31,  23, -36, 23204,   0
277, 605258,   0,   0,   0,   0,   0,   0,   0,   0,   0,   0,   0,   0,   0,   0,   0,   0,   0,   0,   0,   5,  -7,   0, 1186, 660, 16466,  48,  48,  48,  48, -158,   9, -563, 45,  23, -36, 23390,   0
278, 607431,   0,   0,   0,   0,   0,   0,   0,   0,   0,   0,   0,   0,   0,   0,   0,   0,   0,   0,   0,   2,   3,   1, 1215, 547, 16384,  48,  48,  48,  48, -158,   9, -563, 37,  23, -35, 23391,   0
279, 609681,   0,   0,   0,   0,   0,   0,   0,   0,   0,   0,   0,   0,   0,   0,   0,   0,   0,   0,   0,   5,  -5,  -3, 814, 417, 16288,  48,  48,  48,  48, -153,  12, -553, 6,  23, -35, 23255,   0
280, 611648,   0,   0,   0,   0,   0,   0,   0,   0,   0,   0,   0,   0,   0,   0,   0,   0,   0,   0,   0,   2,   7,   0, 863, 356, 16121,  48,  48,  48,  48, -153,  12, -553, -62,  23, -35, 23256,   0
281, 613782,   0,   0,   0,   0,   0,   0,   0,   0,   0,   0,   0,   0,   0,   0,   0,   0,   0,   0,   0,   2,  -2,   3, 869, 456, 16226,  48,  48,  48,  48, -148,  15, -554, -94,  23, -35, 23056,   0
282, 615956,   0,   0,   0,   0,   0,   0,   0,   0,   0,   0,   0,   0,   0,   0,   0,   0,   0,   0,   0,   4,   0, -13, 977, 395, 16233,  48,  48,  48,  48, -148,  15, -554, -119,  23, -35, 23057,   0
283, 618128,   0,   0,   0,   0,   0,   0,   0,   0,   0,   0,   0,   0,   0,   0,   0,   0,   0,   0,   0,  12,   1,   2, 1169, 716, 16478,  48,  48,  48,  48, -166,   5, -552, -78,  23, -35, 23632,   0
284, 620470,   0,   0,   0,   0,   0,   0,   0,   0,   0,   0,   0,   0,   0,   0,   0,   0,   0,   0,   0,   8,   1, -12, 1090, 725, 16618,  48,  48,  48,  48, -166,   5, -552, -8,  23, -35, 23631,   0
285, 622643,   0,   0,   0,   0,   0,   0,   0,   0,   0,   0,   0,   0,   0,   0,   0,   0,   0,   0,   0,  13,   2,   5, 1117, 752, 16513,  48,  48,  48,  48, -157,  11, -561, 23,  23, -35, 23322,   0
286, 624816,   0,   0,   0,   0,   0,   0,   0,   0,   0,   0,   0,   0,   0,   0,   0,   0,   0,   0,   0,  17,   8,  -6, 1129, 768, 16618,  48,  48,  48,  48, -157,  11, -561, 77,  24, -34, 23321,   0
287, 626988,   0,   0,   0,   0,   0,   0,   0,   0,   0,   0,   0,   0,   0,   0,   0,   0,   0,   0,   0,   7,   4,  14, 1022, 534, 16427,  48,  48,  48,  48, -157,   6, -557, 75,  24, -34, 23553,   0
288, 629093,   0,   0,   0,   0,   0,   0,   0,   0,   0,   0,   0,   0,   0,   0,   0,   0,   0,   0,   0,  12,  11,  -4, 1063, 417, 16303,  48,  48,  48,  48, -157,   6, -557, 41,  23, -34, 23554,   0
289, 631267,   0,   0,   0,   0,   0,   0,   0,   0,   0,   0,   0,   0,   0,   0,   0,   0,   0,   0,   0,   9,  -3,  -6, 1133, 500, 16310,  48,  48,  48,  48, -157,   6, -557, 15,  23, -34, 23554,   0
290, 633439,   0,   0,   0,   0,   0,   0,   0,   0,   0,   0,   0,   0,   0,   0,   0,   0,   0,   0,   0,   0,  10,  -1, 1005, 834, 16661,  48,  48,  48,  48, -157,   5, -567, 81,  24, -34, 23572,   0
291, 635782,   0,   0,   0,   0,   0,   0,   0,   0,   0,   0,   0,   0,   0,   0,   0,   0,   0,   0,   0,  -5,  -3,  10, 909, 879, 16794,  48,  48,  48,  48, -157,   5, -567, 171,  24, -33, 23571,   0
292, 637954,   0,   0,   0,   0,   0,   0,   0,   0,   0,   0,   0,   0,   0,   0,   0,   0,   0,   0,   0,   4,  -5,  -7, 974, 790, 16626,  48,  48,  48,  48, -157,   7, -569, 205,  24, -33, 23467,   0
293, 640127,   0,   0,   0,   0,   0,   0,   0,   0,   0,   0,   0,   0,   0,   0,   0,   0,   0,   0,   0,   0,   3,   3, 1044, 857, 16735,  48,  48,  48,  48, -157,   7, -569, 260,  24, -32, 23466,   0
