loopIteration, time (us), axisP[0], axisP[1], axisP[2], axisI[0], axisI[1], axisI[2], axisD[0], axisD[1], axisF[0], axisF[1], axisF[2], rcCommand[0], rcCommand[1], rcCommand[2], rcCommand[3], setpoint[0], setpoint[1], setpoint[2], setpoint[3], gyroADC[0], gyroADC[1], gyroADC[2], accSmooth[0], accSmooth[1], accSmooth[2], motor[0], motor[1], motor[2], motor[3], magADC[0], magADC[1], magADC[2], BaroAlt (cm), debug[0], debug[1], debug[2], debug[3]
  1, 1368,   0,   0,   0,   0,   0, 100,   0,   0,   0,   0,   0,   0,   0,   0,   0,   0,   0,   0,  91,  -2,   4,   0, 1163, 927, 16342,  91,  91,  91,  91, -160,   6, -569, -26, 150, -158, 23038,   0
  2, 3320,   0,   0,   0,   0,   0, 100,   0,   0,   0,   0,   0,   0,   0,   0,   0,   0,   0,   0,  91,  -5,  -2,  -5, 1213, 787, 16298,  91,  91,  91,  91, -160,   6, -569, -62, 150, -157, 23038,   0
  3, 5493,   0,   0,   0,   0,   0,  99,   0,   0,   0,   0,   0,   0,   0,   0,   0,   0,   0,   0,  91,  -1,   9,   8, 1188, 891, 16256,  91,  91,  91,  91, -172,   3, -548, -107, 150, -156, 23245,   0
  4, 7665,   0,   0,   0,   0,   0,  99,   0,   0,   0,   0,   0,   0,   0,   0,   0,   0,   0,   0,  91,   5,   1,   2, 1228, 878, 16267,  91,  91,  91,  91, -172,   3, -548, -142, 150, -156, 23245,   0
  5, 9829,   0,   0,   0,   0,   0,  99,   0,   0,   0,   0,   0,   0,   0,   0,   0,   0,   0,   0,  91,   4,  -2,   0, 1224, 854, 16248,  91,  91,  91,  91, -166,   9, -548, -176, 150, -155, 22954,   0
  6, 11959,   0,   0,   0,   0,   0,  99,   0,   0,   0,   0,   0,   0,   0,   0,   0,   0,   0,   0,  91,   0,   5,  -1, 1331, 893, 16189,  91,  91,  91,  91, -166,   9, -548, -220, 150, -154, 22954,   0
  7, 14131,   0,   0,   0,   0,   0,  99,   0,   0,   0,   0,   0,   0,   0,   0,   0,   0,   0,   0,  91,   2,  -2,  -1, 1209, 831, 16236,  91,  91,  91,  91, -166,   9, -548, -243, 150, -154, 22955,   0
  8, 16304,   0,   0,   0,   0,   0,  99,   0,   0,   0,   0,   0,   0,   0,   0,   0,   0,   0,   0,  91,   2,   4,   5, 1121, 812, 16342,  91,  91,  91,  91, -166,   9, -548, -232, 150, -153, 22955,   0
  9, 18654,   0,   0,   0,   0,   0,  99,   0,   0,   0,   0,   0,   0,   0,   0,   0,   0,   0,   0,  91,   5,   8,   4, 1200, 843, 16295,  91,  91,  91,  91, -166,   9, -548, -235, 150, -152, 22955,   0
 10, 20824,   0,   0,   0,   0,   0,  99,   0,   0,   0,   0,   0,   0,   0,   0,   0,   0,   0,   0,  91,  -1,  -3, -14, 1177, 851, 16128,  91,  91,  91,  91, -168,  -1, -542, -279, 150, -152, 23470,   0
 11, 22999,   0,   0,   0,   0,   0, 100,   0,   0,   0,   0,   0,   0,   0,   0,   0,   0,   0,   0,  91,   2,   4,  -4, 1194, 979, 16380,  91,  91,  91,  91, -168,  -1, -542, -252, 150, -151, 23470,   0
 12, 25212,   0,   0,   0,   0,   0,  99,   0,   0,   0,   0,   0,   0,   0,   0,   0,   0,   0,   0,  91,   0,   0,   6, 1116, 908, 16322,  91,  91,  91,  91, -180,   1, -555, -242, 150, -150, 23363,   0
 13, 27364,   0,   0,   0,   0,   0, 100,   0,   0,   0,   0,   0,   0,   0,   0,   0,   0,   0,   0,  91,   4,   8, -10, 1113, 864, 16322,  91,  91,  91,  91, -180,   1, -555, -233, 150, -149, 23363,   0
 14, 29516,   0,   0,   0,   0,   0,  99,   0,   0,   0,   0,   0,   0,   0,   0,   0,   0,   0,   0,  91,   0,   1,   3, 1193, 815, 16240,  91,  91,  91,  91, -152,  11, -555, -246, 150, -149, 22763,   0
 15, 31858,   0,   0,   0,   0,   0,  99,   0,   0,   0,   0,   0,   0,   0,   0,   0,   0,   0,   0,  91,  -4,   6,  -1, 1123, 976, 16365,  91,  91,  91,  91, -152,  11, -555, -225, 151, -148, 22763,   0
 16, 34037,   0,   0,   0,   0,   0,  99,   0,   0,   0,   0,   0,   0,   0,   0,   0,   0,   0,   0,  91,   1,   1,   1, 1110, 812, 16326,  91,  91,  91,  91, -168,   0, -550, -217, 151, -147, 23439,   0
 17, 36207,   0,   0,   0,   0,   0,  99,   0,   0,   0,   0,   0,   0,   0,   0,   0,   0,   0,   0,  91,  -2,   1,  -3, 1184, 887, 16310,  91,  91,  91,  91, -168,   0, -550, -214, 151, -146, 23439,   0
 18, 38382,   0,   0,   0,   0,   0, 100,   0,   0,   0,   0,   0,   0,   0,   0,   0,   0,   0,   0,  91,   0,  -6,  -5, 1165, 835, 16303,  91,  91,  91,  91, -159,   5, -547, -214, 151, -146, 23125,   0
 19, 40595,   0,   0,   0,   0,   0,  99,   0,   0,   0,   0,   0,   0,   0,   0,   0,   0,   0,   0,  91,   5,   6,   1, 1208, 855, 16310,  91,  91,  91,  91, -159,   5, -547, -211, 151, -145, 23125,   0
 20, 42707,   0,   0,   0,   0,   0,  99,   0,   0,   0,   0,   0,   0,   0,   0,   0,   0,   0,   0,  91,  -4,  -6,   0, 1213, 803, 16310,  91,  91,  91,  91, -174,   9, -539, -209, 151, -145, 23013,   0
 21, 44882,   0,   0,   0,   0,   0, 100,   0,   0,   0,   0,   0,   0,   0,   0,   0,   0,   0,   0,  91,   7,   0,  -1, 1144, 915, 16202,  91,  91,  91,  91, -174,   9, -539, -235, 151, -144, 23013,   0
 22, 47222,   0,   0,   0,   0,   0,  99,   0,   0,   0,   0,   0,   0,   0,   0,   0,   0,   0,   0,  91,  -1,   3,   2, 1163, 883, 16482,  91,  91,  91,  91, -169,  -2, -541, -186, 151, -143, 23525,   0
 23, 49402,   0,   0,   0,   0,   0, 100,   0,   0,   0,   0,   0,   0,   0,   0,   0,   0,   0,   0,  91,   0,  -1, -15, 1112, 944, 16319,  91,  91,  91,  91, -169,  -2, -541, -186, 151, -142, 23525,   0
 24, 51574,   0,   0,   0,   0,   0,  99,   0,   0,   0,   0,   0,   0,   0,   0,   0,   0,   0,   0,  91,   0,  -2,   5, 1113, 900, 16198,  91,  91,  91,  91, -169,  -2, -541, -216, 151, -142, 23525,   0
 25, 53746,   0,   0,   0,   0,   0, 100,   0,   0,   0,   0,   0,   0,   0,   0,   0,   0,   0,   0,  91,   0,  11, -11, 1211, 911, 16365,  91,  91,  91,  91, -169,  -2, -541, -199, 151, -141, 23525,   0
 26, 55938,   0,   0,   0,   0,   0,  99,   0,   0,   0,   0,   0,   0,   0,   0,   0,   0,   0,   0,  91,  -4,  -2,   6, 1196, 855, 16408,  91,  91,  91,  91, -169,  -2, -541, -174, 151, -140, 23525,   0
 27, 58090,   0,   0,   0,   0,   0,  99,   0,   0,   0,   0,   0,   0,   0,   0,   0,   0,   0,   0,  91,   5,  10,  -2, 1251, 878, 16427,  91,  91,  91,  91, -159,   8, -561, -149, 151, -140, 22973,   0
 28, 60262,   0,   0,   0,   0,   0,  99,   0,   0,   0,   0,   0,   0,   0,   0,   0,   0,   0,   0,  91,  -7,  -4,   0, 1097, 880, 16385,  91,  91,  91,  91, -159,   8, -561, -137, 151, -139, 22973,   0
 29, 62606,   0,   0,   0,   0,   0,  99,   0,   0,   0,   0,   0,   0,   0,   0,   0,   0,   0,   0,  91,  -8,   4,  12, 1137, 824, 16334,  91,  91,  91,  91, -156,   7, -551, -139, 151, -138, 22993,   0
 30, 64783,   0,   0,   0,   0,   0,  99,   0,   0,   0,   0,   0,   0,   0,   0,   0,   0,   0,   0,  91,   2,  -4,   1, 1157, 819, 16334,  91,  91,  91,  91, -156,   7, -551, -142, 151, -138, 22993,   0
 31, 66954,   0,   0,   0,   0,   0,  99,   0,   0,   0,   0,   0,   0,   0,   0,   0,   0,   0,   0,  91,   0,   6,   1, 1195, 867, 16497,  91,  91,  91,  91, -162,   4, -544, -103, 151, -137, 23200,   0
 32, 69127,   0,   0,   0,   0,   0,  99,   0,   0,   0,   0,   0,   0,   0,   0,   0,   0,   0,   0,  91,   0,   7, -10, 1284, 806, 16353,  91,  91,  91,  91, -162,   4, -544, -106, 151, -136, 23200,   0
 33, 71322,   0,   0,   0,   0,   0,  99,   0,   0,   0,   0,   0,   0,   0,   0,   0,   0,   0,   0,  91,  -3,  -5,   4, 1117, 836, 16458,  91,  91,  91,  91, -169,   4, -554, -82, 151, -136, 23191,   0
 34, 73474,   0,   0,   0,   0,   0,  99,   0,   0,   0,   0,   0,   0,   0,   0,   0,   0,   0,   0,  91,   2,   7,  -7, 1196, 903, 16205,  91,  91,  91,  91, -169,   4, -554, -126, 151, -135, 23191,   0
 35, 75646,   0,   0,   0,   0,   0,  99,   0,   0,   0,   0,   0,   0,   0,   0,   0,   0,   0,   0,  91,  -7,  -7,   8, 1192, 879, 16244,  91,  91,  91,  91, -163,  11, -550, -154, 151, -134, 22867,   0
 36, 77989,   0,   0,   0,   0,   0,  99,   0,   0,   0,   0,   0,   0,   0,   0,   0,   0,   0,   0,  91,   5,   0,  -6, 1211, 934, 16260,  91,  91,  91,  91, -163,  11, -550, -173, 151, -134, 22867,   0
 37, 80167,   0,   0,   0,   0,   0,  99,   0,   0,   0,   0,   0,   0,   0,   0,   0,   0,   0,   0,  91,   0,   0,   6, 1177, 831, 16260,  91,  91,  91,  91, -166,   3, -536, -189, 151, -133, 23274,   0
 38, 82339,   0,   0,   0,   0,   0,  99,   0,   0,   0,   0,   0,   0,   0,   0,   0,   0,   0,   0,  91,   3,  -2,   0, 1160, 863, 16303,  91,  91,  91,  91, -166,   3, -536, -192, 151, -132, 23274,   0
 39, 84512,   0,   0,   0,   0,   0,  99,   0,   0,   0,   0,   0,   0,   0,   0,   0,   0,   0,   0,  91,  -7,  -5,  -5, 1184, 871, 16349,  91,  91,  91,  91, -170,  12, -548, -182, 151, -132, 22869,   0
 40, 86706,   0,   0,   0,   0,   0, 100,   0,   0,   0,   0,   0,   0,   0,   0,   0,   0,   0,   0,  91,  -9,   8, -14, 1143, 979, 16233,  91,  91,  91,  91, -170,  12, -548, -204, 152, -131, 22869,   0
 41, 88860,   0,   0,   0,   0,   0, 100,   0,   0,   0,   0,   0,   0,   0,   0,   0,   0,   0,   0,  91,  -4,   5,  -1, 1227, 906, 16337,  91,  91,  91,  91, -170,  11, -540, -196, 152, -130, 22922,   0
 42, 91032,   0,   0,   0,   0,   0,  99,   0,   0,   0,   0,   0,   0,   0,   0,   0,   0,   0,   0,  91,   5,   4,   3, 1215, 918, 16240,  91,  91,  91,  91, -170,  11, -540, -214, 152, -130, 22922,   0
 43, 93389,   0,   0,   0,   0,   0,  99,   0,   0,   0,   0,   0,   0,   0,   0,   0,   0,   0,   0,  91,  -1,   5,   3, 1239, 886, 16365,  91,  91,  91,  91, -170,  11, -540, -197, 152, -129, 22922,   0
 44, 95552,   0,   0,   0,   0,   0, 100,   0,   0,   0,   0,   0,   0,   0,   0,   0,   0,   0,   0,  91,   6,   0, -25, 1224, 842, 16283,  91,  91,  91,  91, -167,  10, -560, -204, 152, -128, 22901,   0
 45, 97724,   0,   0,   0,   0,   0, 100,   0,   0,   0,   0,   0,   0,   0,   0,   0,   0,   0,   0,  91,  -2,   5,  -6, 1220, 791, 16400,  91,  91,  91,  91, -167,  10, -560, -180, 152, -128, 22902,   0
 46, 99898,   0,   0,   0,   0,   0, 100,   0,   0,   0,   0,   0,   0,   0,   0,   0,   0,   0,   0,  91,   3,   2,  -2, 1106, 820, 16307,  91,  91,  91,  91, -170,   4, -555, -182, 152, -127, 23192,   0
 47, 102088,   0,   0,   0,   0,   0,  99,   0,   0,   0,   0,   0,   0,   0,   0,   0,   0,   0,   0,  91,  -5,  -1,  16, 1250, 930, 16349,  91,  91,  91,  91, -170,   4, -555, -175, 152, -126, 23192,   0
 48, 104240,   0,   0,   0,   0,   0,  99,   0,   0,   0,   0,   0,   0,   0,   0,   0,   0,   0,   0,  91,  -4,   3, -10, 1172, 895, 16326,  91,  91,  91,  91, -181,   6, -552, -173, 152, -126, 23181,   0
 49, 106413,   0,   0,   0,   0,   0,  99,   0,   0,   0,   0,   0,   0,   0,   0,   0,   0,   0,   0,  91,  -2,   6,   6, 1279, 826, 16360,  91,  91,  91,  91, -181,   6, -552, -164, 152, -125, 23181,   0
 50, 108753,   0,   0,   0,   0,   0,  99,   0,   0,   0,   0,   0,   0,   0,   0,   0,   0,   0,   0,  91,   0,  -4,   0, 1211, 910, 16295,  91,  91,  91,  91, -167,  11, -545, -173, 152, -124, 22862,   0
 51, 110933,   0,   0,   0,   0,   0,  99,   0,   0,   0,   0,   0,   0,   0,   0,   0,   0,   0,   0,  91,  -2,   0,  -3, 1232, 846, 16283,  91,  91,  91,  91, -167,  11, -545, -183, 152, -124, 22862,   0
 52, 113105,   0,   0,   0,   0,   0,  99,   0,   0,   0,   0,   0,   0,   0,   0,   0,   0,   0,   0,  91,   6,  -5,   9, 1203, 926, 16252,  91,  91,  91,  91, -169,  10, -546, -200, 152, -123, 22940,   0
 53, 115277,   0,   0,   0,   0,   0,  99,   0,   0,   0,   0,   0,   0,   0,   0,   0,   0,   0,   0,  91, -10,   7,  -2, 1152, 879, 16342,  91,  91,  91,  91, -169,  10, -546, -190, 152, -122, 22941,   0
 54, 117471,   0,   0,   0,   0,   0,  99,   0,   0,   0,   0,   0,   0,   0,   0,   0,   0,   0,   0,  91,   1,   1,   9, 1184, 879, 16244,  91,  91,  91,  91, -181,  10, -538, -207, 152, -122, 23007,   0
 55, 119624,   0,   0,   0,   0,   0,  99,   0,   0,   0,   0,   0,   0,   0,   0,   0,   0,   0,   0,  91,  -1,   0,  -3, 1243, 918, 16302,  91,  91,  91,  91, -181,  10, -538, -208, 152, -121, 23007,   0
 56, 121797,   0,   0,   0,   0,   0,  99,   0,   0,   0,   0,   0,   0,   0,   0,   0,   0,   0,   0,  91,  -6,   3,  -4, 1144, 915, 16338,  91,  91,  91,  91, -168,   3, -552, -198, 152, -120, 23243,   0
 57, 124139,   0,   0,   0,   0,   0,  99,   0,   0,   0,   0,   0,   0,   0,   0,   0,   0,   0,   0,  91,   1,   1,   3, 1137, 820, 16353,  91,  91,  91,  91, -168,   3, -552, -186, 152, -120, 23243,   0
 58, 126316,   0,   0,   0,   0,   0,  99,   0,   0,   0,   0,   0,   0,   0,   0,   0,   0,   0,   0,  91,  -3,   6,  -3, 1009, 913, 16370,  91,  91,  91,  91, -172,   9, -539, -171, 152, -119, 23029,   0
 59, 128488,   0,   0,   0,   0,   0,  99,   0,   0,   0,   0,   0,   0,   0,   0,   0,   0,   0,   0,  91,  -6,  -7,  -6, 1172, 879, 16229,  91,  91,  91,  91, -172,   9, -539, -195, 152, -118, 23030,   0
 60, 130662,   0,   0,   0,   0,   0,  99,   0,   0,   0,   0,   0,   0,   0,   0,   0,   0,   0,   0,  91,  -1,   8,  -5, 1144, 915, 16311,  91,  91,  91,  91, -172,   9, -539, -194, 152, -118, 23030,   0
 61, 132854,   0,   0,   0,   0,   0,  99,   0,   0,   0,   0,   0,   0,   0,   0,   0,   0,   0,   0,  91,  -2,   1,   1, 1142, 784, 16283,  91,  91,  91,  91, -157,   9, -557, -200, 152, -117, 22878,   0
 62, 135004,   0,   0,   0,   0,   0,  99,   0,   0,   0,   0,   0,   0,   0,   0,   0,   0,   0,   0,  91,  -2,   0,   3, 1192, 855, 16233,  91,  91,  91,  91, -157,   9, -557, -218, 152, -117, 22878,   0
 63, 137179,   0,   0,   0,   0,   0,  99,   0,   0,   0,   0,   0,   0,   0,   0,   0,   0,   0,   0,  91,   0,   5,   5, 1120, 916, 16311,  91,  91,  91,  91, -165,  10, -542, -214, 153, -116, 22910,   0
 64, 139520,   0,   0,   0,   0,   0,  99,   0,   0,   0,   0,   0,   0,   0,   0,   0,   0,   0,   0,  91,  -5,  -7,   2, 1100, 936, 16264,  91,  91,  91,  91, -165,  10, -542, -222, 153, -115, 22910,   0
 65, 141699,   0,   0,   0,   0,   0,  99,   0,   0,   0,   0,   0,   0,   0,   0,   0,   0,   0,   0,  91,   0,   3,   1, 1204, 815, 16404,  91,  91,  91,  91, -172,   7, -551, -193, 153, -115, 23105,   0
 66, 143871,   0,   0,   0,   0,   0,  99,   0,   0,   0,   0,   0,   0,   0,   0,   0,   0,   0,   0,  91,  -3,   8,  -2, 1138, 776, 16268,  91,  91,  91,  91, -172,   7, -551, -203, 153, -114, 23105,   0
 67, 146042,   0,   0,   0,   0,   0,  99,   0,   0,   0,   0,   0,   0,   0,   0,   0,   0,   0,   0,  91,  -3,  -7,   6, 1149, 871, 16276,  91,  91,  91,  91, -167,  12, -555, -210, 153, -114, 22806,   0
 68, 148235,   0,   0,   0,   0,   0,  99,   0,   0,   0,   0,   0,   0,   0,   0,   0,   0,   0,   0,  91,  -1,   2,   2, 1149, 788, 16318,  91,  91,  91,  91, -167,  12, -555, -204, 153, -113, 22806,   0
 69, 150385,   0,   0,   0,   0,   0,  99,   0,   0,   0,   0,   0,   0,   0,   0,   0,   0,   0,   0,  91,  -1,  -4,  -9, 1128, 908, 16326,  91,  91,  91,  91, -167,   4, -538, -198, 153, -112, 23198,   0
 70, 152560,   0,   0,   0,   0,   0,  99,   0,   0,   0,   0,   0,   0,   0,   0,   0,   0,   0,   0,  91,   3,   4,  -3, 1193, 763, 16322,  91,  91,  91,  91, -167,   4, -538, -194, 153, -112, 23199,   0
 71, 154901,   0,   0,   0,   0,   0,  99,   0,   0,   0,   0,   0,   0,   0,   0,   0,   0,   0,   0,  91,  -2,  -9,  -7, 1145, 824, 16361,  91,  91,  91,  91, -158,  10, -544, -180, 153, -111, 22864,   0
 72, 157081,   0,   0,   0,   0,   0,  99,   0,   0,   0,   0,   0,   0,   0,   0,   0,   0,   0,   0,  91,  -9,   2,   5, 1200, 831, 16310,  91,  91,  91,  91, -158,  10, -544, -181, 152, -111, 22864,   0
 73, 159252,   0,   0,   0,   0,   0,  99,   0,   0,   0,   0,   0,   0,   0,   0,   0,   0,   0,   0,  91,   8,   0,   3, 1109, 844, 16377,  91,  91,  91,  91, -175,   8, -551, -165, 153, -110, 23071,   0
 74, 161426,   0,   0,   0,   0,   0,  99,   0,   0,   0,   0,   0,   0,   0,   0,   0,   0,   0,   0,  91,  14,   9,  -9, 1153, 863, 16299,  91,  91,  91,  91, -175,   8, -551, -172, 153, -110, 23071,   0
 75, 163617,   0,   0,   0,   0,   0,  99,   0,   0,   0,   0,   0,   0,   0,   0,   0,   0,   0,   0,  91,  -3,  -6,  -5, 1180, 887, 16318,  91,  91,  91,  91, -169,   2, -549, -172, 153, -109, 23308,   0
 76, 165769,   0,   0,   0,   0,   0,  99,   0,   0,   0,   0,   0,   0,   0,   0,   0,   0,   0,   0,  91,  -1,  11,  -1, 1174, 791, 16159,  91,  91,  91,  91, -169,   2, -549, -213, 153, -108, 23309,   0
 77, 167942,   0,   0,   0,   0,   0,  99,   0,   0,   0,   0,   0,   0,   0,   0,   0,   0,   0,   0,  91,  -4,  -5,   8, 1184, 863, 16295,  91,  91,  91,  91, -169,   2, -549, -213, 153, -108, 23309,   0
 78, 170284,   0,   0,   0,   0,   0,  99,   0,   0,   0,   0,   0,   0,   0,   0,   0,   0,   0,   0,  91,  -2,   3,   5, 1176, 959, 16170,  91,  91,  91,  91, -170,   8, -548, -245, 153, -107, 23039,   0
 79, 172462,   0,   0,   0,   0,   0,  99,   0,   0,   0,   0,   0,   0,   0,   0,   0,   0,   0,   0,  91,   7,   5,   5, 1133, 832, 16276,  91,  91,  91,  91, -170,   8, -548, -245, 153, -106, 23039,   0
 80, 174634,   0,   0,   0,   0,   0,  99,   0,   0,   0,   0,   0,   0,   0,   0,   0,   0,   0,   0,  91,  -2,  -4,  13, 1153, 843, 16342,  91,  91,  91,  91, -171,  10, -544, -228, 153, -106, 22941,   0
 81, 176807,   0,   0,   0,   0,   0,  99,   0,   0,   0,   0,   0,   0,   0,   0,   0,   0,   0,   0,  91,   4,   0, -10, 1219, 946, 16279,  91,  91,  91,  91, -171,  10, -544, -230, 153, -105, 22941,   0
 82, 179001,   0,   0,   0,   0,   0,  99,   0,   0,   0,   0,   0,   0,   0,   0,   0,   0,   0,   0,  91,  -3,   8,   0, 1138, 1027, 16334,  91,  91,  91,  91, -164,   6, -552, -218, 153, -104, 23087,   0
 83, 181152,   0,   0,   0,   0,   0,  99,   0,   0,   0,   0,   0,   0,   0,   0,   0,   0,   0,   0,  91,   0,   5,   5, 1152, 895, 16377,  91,  91,  91,  91, -164,   6, -552, -197, 153, -104, 23087,   0
 84, 183324,   0,   0,   0,   0,   0,  99,   0,   0,   0,   0,   0,   0,   0,   0,   0,   0,   0,   0,  91,   1,  -1,   5, 1247, 866, 16310,  91,  91,  91,  91, -177,   5, -547, -196, 153, -103, 23183,   0
 85, 185666,   0,   0,   0,   0,   0,  99,   0,   0,   0,   0,   0,   0,   0,   0,   0,   0,   0,   0,  91,   6,   1,  -8, 1254, 954, 16310,  91,  91,  91,  91, -177,   5, -547, -195, 153, -103, 23183,   0
 86, 187846,   0,   0,   0,   0,   0,  99,   0,   0,   0,   0,   0,   0,   0,   0,   0,   0,   0,   0,  91,   0,   0,  -1, 1117, 900, 16178,  91,  91,  91,  91, -165,   7, -545, -227, 153, -102, 23045,   0
 87, 190027,   0,   0,   0,   0,   0,  99,   0,   0,   0,   0,   0,   0,   0,   0,   0,   0,   0,   0,  91,  -9,  -2,   4, 1062, 900, 16167,  91,  91,  91,  91, -165,   7, -545, -257, 153, -101, 23046,   0
 88, 192189,   0,   0,   0,   0,   0,  99,   0,   0,   0,   0,   0,   0,   0,   0,   0,   0,   0,   0,  91,   5,   2,   4, 1200, 823, 16306,  91,  91,  91,  91, -169,  11, -538, -247, 153, -101, 22906,   0
 89, 194383,   0,   0,   0,   0,   0,  99,   0,   0,   0,   0,   0,   0,   0,   0,   0,   0,   0,   0,  91,   0,   0,   7, 1112, 1003, 16217,  91,  91,  91,  91, -169,  11, -538, -262, 154, -100, 22906,   0
 90, 196533,   0,   0,   0,   0,   0,  99,   0,   0,   0,   0,   0,   0,   0,   0,   0,   0,   0,   0,  91,   2,   4,   1, 1101, 848, 16459,  91,  91,  91,  91, -167,   1, -548, -212, 154, -99, 23353,   0
 91, 198707,   0,   0,   0,   0,   0,  99,   0,   0,   0,   0,   0,   0,   0,   0,   0,   0,   0,   0,  91, -10,   3,  16, 1204, 871, 16365,  91,  91,  91,  91, -167,   1, -548, -195, 154, -99, 23353,   0
 92, 200782,   0,   0,   0,   0,   0,   0,   0,   0,   0,   0,   0,   0,   0,   0,   0,   0,   0,   0,   0,  -2,   1,  -3, 1168, 867, 16268,  48,  48,  48,  48, -160,   3, -553, -204, 154, -98, 23213,   0
 93, 203124,   0,   0,   0,   0,   0,   0,   0,   0,   0,   0,   0,   0,   0,   0,   0,   0,   0,   0,   0,  -1,  -2,  -4, 1112, 948, 16249,  48,  48,  48,  48, -160,   3, -553, -217, 154, -98, 23213,   0
 94, 205306,   0,   0,   0,   0,   0,   0,   0,   0,   0,   0,   0,   0,   0,   0,   0,   0,   0,   0,   0,  10,  -7,  -1, 1298, 969, 16291,  48,  48,  48,  48, -160,   3, -553, -218, 154, -97, 23212,   0
 95, 207487,   0,   0,   0,   0,   0,   0,   0,   0,   0,   0,   0,   0,   0,   0,   0,   0,   0,   0,   0,  -2,  16,  -2, 1074, 788, 16311,  48,  48,  48,  48, -164,   8, -554, -213, 154, -96, 23010,   0
 96, 209665,   0,   0,   0,   0,   0,   0,   0,   0,   0,   0,   0,   0,   0,   0,   0,   0,   0,   0,   0,  -6,   8,  13, 1259, 878, 16407,  48,  48,  48,  48, -164,   8, -554, -184, 154, -96, 23010,   0
 97, 211772,   0,   0,   0,   0,   0,   0,   0,   0,   0,   0,   0,   0,   0,   0,   0,   0,   0,   0,   0,  -3,  -4,   5, 1193, 823, 16271,  48,  48,  48,  48, -167,   8, -540, -195, 154, -95, 23029,   0
 98, 213945,   0,   0,   0,   0,   0,   0,   0,   0,   0,   0,   0,   0,   0,   0,   0,   0,   0,   0,   0,   6,   1,  -2, 1161, 847, 16268,  48,  48,  48,  48, -167,   8, -540, -204, 154, -95, 23029,   0
 99, 216118,   0,   0,   0,   0,   0,   0,   0,   0,   0,   0,   0,   0,   0,   0,   0,   0,   0,   0,   0,  -4,  12,  -7, 1197, 779, 16365,  48,  48,  48,  48, -165,   4, -559, -187, 154, -94, 23161,   0
100, 218460,   0,   0,   0,   0,   0,   0,   0,   0,   0,   0,   0,   0,   0,   0,   0,   0,   0,   0,   0,  10,  -8,   6, 1239, 858, 16431,  48,  48,  48,  48, -165,   4, -559, -157, 154, -94, 23161,   0
101, 220642,   0,   0,   0,   0,   0,   0,   0,   0,   0,   0,   0,   0,   0,   0,   0,   0,   0,   0,   0,  -8,  -5,   2, 1149, 855, 16268,  48,  48,  48,  48, -178,   3, -549, -172, 154, -93, 23315,   0
102, 222823,   0,   0,   0,   0,   0,   0,   0,   0,   0,   0,   0,   0,   0,   0,   0,   0,   0,   0,   0,  -5,   5,   8, 1109, 840, 16373,  48,  48,  48,  48, -178,   3, -549, -158, 154, -93, 23316,   0
103, 225075,   0,   0,   0,   0,   0,   0,   0,   0,   0,   0,   0,   0,   0,   0,   0,   0,   0,   0,   0,   0,   2,   0, 1188, 927, 16174,  48,  48,  48,  48, -171,   6, -546, -197, 154, -92, 23144,   0
104, 227177,   0,   0,   0,   0,   0,   0,   0,   0,   0,   0,   0,   0,   0,   0,   0,   0,   0,   0,   0,   5,   5,   0, 1254, 938, 16314,  48,  48,  48,  48, -171,   6, -546, -195, 154, -91, 23144,   0
105, 229350,   0,   0,   0,   0,   0,   0,   0,   0,   0,   0,   0,   0,   0,   0,   0,   0,   0,   0,   0,  -2,  -6,   9, 1283, 886, 16224,  48,  48,  48,  48, -157,   4, -546, -215, 154, -91, 23180,   0
106, 231523,   0,   0,   0,   0,   0,   0,   0,   0,   0,   0,   0,   0,   0,   0,   0,   0,   0,   0,   0,  -8,  10,   4, 1181, 851, 16252,  48,  48,  48,  48, -157,   4, -546, -226, 154, -90, 23181,   0
107, 233865,   0,   0,   0,   0,   0,   0,   0,   0,   0,   0,   0,   0,   0,   0,   0,   0,   0,   0,   0,  -1,   5,   1, 1282, 934, 16302,  48,  48,  48,  48, -162,   1, -562, -222, 154, -89, 23310,   0
108, 236047,   0,   0,   0,   0,   0,   0,   0,   0,   0,   0,   0,   0,   0,   0,   0,   0,   0,   0,   0,  -2,  12,  -2, 1181, 783, 16326,  48,  48,  48,  48, -162,   1, -562, -212, 154, -89, 23311,   0
109, 238228,   0,   0,   0,   0,   0,   0,   0,   0,   0,   0,   0,   0,   0,   0,   0,   0,   0,   0,   0,  -3, -10,   1, 1185, 839, 16295,  48,  48,  48,  48, -160,   2, -546, -212, 154, -88, 23290,   0
110, 240429,   0,   0,   0,   0,   0,   0,   0,   0,   0,   0,   0,   0,   0,   0,   0,   0,   0,   0,   0,   8,   4,  -4, 1203, 875, 16419,  48,  48,  48,  48, -160,   2, -546, -180, 154, -88, 23290,   0
111, 242535,   0,   0,   0,   0,   0,   0,   0,   0,   0,   0,   0,   0,   0,   0,   0,   0,   0,   0,   0,   2,  10,  -9, 1164, 907, 16202,  48,  48,  48,  48, -160,   2, -546, -208, 154, -87, 23290,   0
112, 244708,   0,   0,   0,   0,   0,   0,   0,   0,   0,   0,   0,   0,   0,   0,   0,   0,   0,   0,   0,   0,   0,   1, 1167, 935, 16334,  48,  48,  48,  48, -160,   2, -546, -199, 154, -87, 23290,   0
113, 246881,   0,   0,   0,   0,   0,   0,   0,   0,   0,   0,   0,   0,   0,   0,   0,   0,   0,   0,   0,  -3,  -1,  -1, 1184, 871, 16369,  48,  48,  48,  48, -160,   2, -546, -182, 154, -86, 23290,   0
114, 249224,   0,   0,   0,   0,   0,   0,   0,   0,   0,   0,   0,   0,   0,   0,   0,   0,   0,   0,   0,   4,   4,  -8, 1181, 839, 16252,  48,  48,  48,  48, -164,  10, -563, -197, 154, -86, 22888,   0
115, 251405,   0,   0,   0,   0,   0,   0,   0,   0,   0,   0,   0,   0,   0,   0,   0,   0,   0,   0,   0,  -3,  -6,   1, 1232, 823, 16392,  48,  48,  48,  48, -164,  10, -563, -174, 154, -85, 22888,   0
116, 253586,   0,   0,   0,   0,   0,   0,   0,   0,   0,   0,   0,   0,   0,   0,   0,   0,   0,   0,   0,   7,   0,  -5, 1128, 947, 16283,  48,  48,  48,  48, -170,   4, -563, -183, 155, -84, 23192,   0
117, 255839,   0,   0,   0,   0,   0,   0,   0,   0,   0,   0,   0,   0,   0,   0,   0,   0,   0,   0,   0,  -6,  10, -10, 1139, 935, 16385,  48,  48,  48,  48, -170,   4, -563, -164, 155, -84, 23192,   0
118, 257941,   0,   0,   0,   0,   0,   0,   0,   0,   0,   0,   0,   0,   0,   0,   0,   0,   0,   0,   0,   1, -11,   7, 1199, 911, 16299,  48,  48,  48,  48, -168,   3, -553, -170, 155, -83, 23246,   0
119, 260114,   0,   0,   0,   0,   0,   0,   0,   0,   0,   0,   0,   0,   0,   0,   0,   0,   0,   0,   0,   0, -10,   0, 1215, 883, 16330,  48,  48,  48,  48, -168,   3, -553, -168, 155, -83, 23247,   0
120, 262287,   0,   0,   0,   0,   0,   0,   0,   0,   0,   0,   0,   0,   0,   0,   0,   0,   0,   0,   0,  -6,   3,   8, 1122, 772, 16326,  48,  48,  48,  48, -174,   2, -559, -165, 155, -82, 23335,   0
121, 264629,   0,   0,   0,   0,   0,   0,   0,   0,   0,   0,   0,   0,   0,   0,   0,   0,   0,   0,   0,  -3,  -4,   5, 1204, 835, 16318,  48,  48,  48,  48, -174,   2, -559, -166, 155, -82, 23335,   0
122, 266810,   0,   0,   0,   0,   0,   0,   0,   0,   0,   0,   0,   0,   0,   0,   0,   0,   0,   0,   0,   2,   0,  -4, 1283, 846, 16290,  48,  48,  48,  48, -164,   6, -547, -174, 155, -81, 23110,   0
123, 268992,   0,   0,   0,   0,   0,   0,   0,   0,   0,   0,   0,   0,   0,   0,   0,   0,   0,   0,   0,   9,   2,  -4, 1166, 743, 16357,  48,  48,  48,  48, -164,   6, -547, -163, 155, -81, 23110,   0
124, 271194,   0,   0,   0,   0,   0,   0,   0,   0,   0,   0,   0,   0,   0,   0,   0,   0,   0,   0,   0,   5,   3,   5, 1217, 799, 16291,  48,  48,  48,  48, -178,   0, -536, -171, 155, -80, 23446,   0
125, 273300,   0,   0,   0,   0,   0,   0,   0,   0,   0,   0,   0,   0,   0,   0,   0,   0,   0,   0,   0,   3,   3,   6, 1123, 912, 16529,  48,  48,  48,  48, -178,   0, -536, -118, 155, -80, 23446,   0
126, 275473,   0,   0,   0,   0,   0,   0,   0,   0,   0,   0,   0,   0,   0,   0,   0,   0,   0,   0,   0,  -5,   0,   0, 1235, 886, 16314,  48,  48,  48,  48, -166,   9, -547, -127, 155, -79, 22980,   0
127, 277646,   0,   0,   0,   0,   0,   0,   0,   0,   0,   0,   0,   0,   0,   0,   0,   0,   0,   0,   0,   3,  11,   0, 1172, 895, 16388,  48,  48,  48,  48, -166,   9, -547, -116, 155, -79, 22980,   0
128, 279988,   0,   0,   0,   0,   0,   0,   0,   0,   0,   0,   0,   0,   0,   0,   0,   0,   0,   0,   0,  -3,  -2,   0, 1165, 835, 16310,  48,  48,  48,  48, -166,   9, -547, -126, 155, -78, 22980,   0
129, 282191,   0,   0,   0,   0,   0,   0,   0,   0,   0,   0,   0,   0,   0,   0,   0,   0,   0,   0,   0,  -1,  -3,   3, 1117, 880, 16229,  48,  48,  48,  48, -166,   9, -547, -155, 155, -77, 22980,   0
130, 284392,   0,   0,   0,   0,   0,   0,   0,   0,   0,   0,   0,   0,   0,   0,   0,   0,   0,   0,   0,   0,  -6,  -2, 1247, 878, 16260,  48,  48,  48,  48, -166,   9, -547, -172, 155, -77, 22981,   0
131, 286585,   0,   0,   0,   0,   0,   0,   0,   0,   0,   0,   0,   0,   0,   0,   0,   0,   0,   0,   0,  -6,   7, -17, 1173, 783, 16287,  48,  48,  48,  48, -158,  12, -559, -180, 155, -76, 22769,   0
132, 288682,   0,   0,   0,   0,   0,   0,   0,   0,   0,   0,   0,   0,   0,   0,   0,   0,   0,   0,   0,   3,   0,   3, 1184, 851, 16338,  48,  48,  48,  48, -158,  12, -559, -173, 155, -76, 22769,   0
133, 290855,   0,   0,   0,   0,   0,   0,   0,   0,   0,   0,   0,   0,   0,   0,   0,   0,   0,   0,   0, -10,   0,   5, 1143, 955, 16326,  48,  48,  48,  48, -169,   8, -559, -170, 155, -75, 23022,   0
134, 293028,   0,   0,   0,   0,   0,   0,   0,   0,   0,   0,   0,   0,   0,   0,   0,   0,   0,   0,   0,  -4,   4,   4, 1228, 866, 16299,  48,  48,  48,  48, -169,   8, -559, -175, 155, -75, 23022,   0
135, 295370,   0,   0,   0,   0,   0,   0,   0,   0,   0,   0,   0,   0,   0,   0,   0,   0,   0,   0,   0,   2,   2,   6, 1292, 818, 16306,  48,  48,  48,  48, -168,   8, -557, -178, 155, -74, 23022,   0
136, 297573,   0,   0,   0,   0,   0,   0,   0,   0,   0,   0,   0,   0,   0,   0,   0,   0,   0,   0,   0,  -4,  -1,   0, 1157, 827, 16237,  48,  48,  48,  48, -168,   8, -557, -197, 155, -74, 23022,   0
137, 299774,   0,   0,   0,   0,   0,   0,   0,   0,   0,   0,   0,   0,   0,   0,   0,   0,   0,   0,   0,   0,   3,  -2, 1136, 895, 16287,  48,  48,  48,  48, -174,   4, -553, -200, 155, -73, 23225,   0
138, 301957,   0,   0,   0,   0,   0,   0,   0,   0,   0,   0,   0,   0,   0,   0,   0,   0,   0,   0,   0,  -2,   0,   8, 1215, 922, 16334,  48,  48,  48,  48, -174,   4, -553, -192, 155, -73, 23225,   0
139, 304063,   0,   0,   0,   0,   0,   0,   0,   0,   0,   0,   0,   0,   0,   0,   0,   0,   0,   0,   0,   2, -11,  -4, 1164, 875, 16334,  48,  48,  48,  48, -175,  11, -552, -184, 155, -72, 22940,   0
140, 306236,   0,   0,   0,   0,   0,   0,   0,   0,   0,   0,   0,   0,   0,   0,   0,   0,   0,   0,   0,  10,  14,  -8, 1164, 847, 16396,  48,  48,  48,  48, -175,  11, -552, -162, 155, -72, 22940,   0
141, 308409,   0,   0,   0,   0,   0,   0,   0,   0,   0,   0,   0,   0,   0,   0,   0,   0,   0,   0,   0,   0,  -2, -18, 1122, 796, 16346,  48,  48,  48,  48, -175,   5, -543, -155, 155, -71, 23218,   0
142, 310752,   0,   0,   0,   0,   0,   0,   0,   0,   0,   0,   0,   0,   0,   0,   0,   0,   0,   0,   0,  -2,   5,   4, 1164, 935, 16272,  48,  48,  48,  48, -175,   5, -543, -169, 155, -71, 23218,   0
143, 312953,   0,   0,   0,   0,   0,   0,   0,   0,   0,   0,   0,   0,   0,   0,   0,   0,   0,   0,   0,   2, -18,   3, 1140, 931, 16350,  48,  48,  48,  48, -166,   2, -551, -161, 155, -70, 23294,   0
144, 315155,   0,   0,   0,   0,   0,   0,   0,   0,   0,   0,   0,   0,   0,   0,   0,   0,   0,   0,   0,   3,  -1,  -5, 1232, 866, 16213,  48,  48,  48,  48, -166,   2, -551, -189, 155, -70, 23294,   0
145, 317339,   0,   0,   0,   0,   0,   0,   0,   0,   0,   0,   0,   0,   0,   0,   0,   0,   0,   0,   0,  -6,  -4,  11, 1164, 895, 16318,  48,  48,  48,  48, -170,  11, -535, -186, 155, -69, 22933,   0
146, 319445,   0,   0,   0,   0,   0,   0,   0,   0,   0,   0,   0,   0,   0,   0,   0,   0,   0,   0,   0,  -3,   0,   7, 1122, 832, 16159,  48,  48,  48,  48, -170,  11, -535, -223, 155, -68, 22933,   0
147, 321618,   0,   0,   0,   0,   0,   0,   0,   0,   0,   0,   0,   0,   0,   0,   0,   0,   0,   0,   0,  -1,   1, -12, 1180, 875, 16264,  48,  48,  48,  48, -170,  11, -535, -228, 155, -68, 22933,   0
148, 323791,   0,   0,   0,   0,   0,   0,   0,   0,   0,   0,   0,   0,   0,   0,   0,   0,   0,   0,   0,   0,  -7,   1, 1205, 839, 16151,  48,  48,  48,  48, -164,   3, -566, -261, 155, -67, 23208,   0
149, 326135,   0,   0,   0,   0,   0,   0,   0,   0,   0,   0,   0,   0,   0,   0,   0,   0,   0,   0,   0,   3,   4,  -3, 1236, 846, 16298,  48,  48,  48,  48, -164,   3, -566, -252, 155, -67, 23208,   0
150, 328337,   0,   0,   0,   0,   0,   0,   0,   0,   0,   0,   0,   0,   0,   0,   0,   0,   0,   0,   0,   2,  -1,   1, 1298, 925, 16224,  48,  48,  48,  48, -167,   4, -556, -264, 155, -66, 23187,   0
151, 330540,   0,   0,   0,   0,   0,   0,   0,   0,   0,   0,   0,   0,   0,   0,   0,   0,   0,   0,   0,   0,   3,   1, 1192, 855, 16443,  48,  48,  48,  48, -167,   4, -556, -217, 155, -66, 23187,   0
152, 332721,   0,   0,   0,   0,   0,   0,   0,   0,   0,   0,   0,   0,   0,   0,   0,   0,   0,   0,   0, -13,  -8,   1, 1274, 930, 16400,  48,  48,  48,  48, -165,   9, -569, -190, 155, -65, 22971,   0
153, 334828,   0,   0,   0,   0,   0,   0,   0,   0,   0,   0,   0,   0,   0,   0,   0,   0,   0,   0,   0,   5,   2,   2, 1231, 910, 16260,  48,  48,  48,  48, -165,   9, -569, -201, 156, -65, 22971,   0
154, 337001,   0,   0,   0,   0,   0,   0,   0,   0,   0,   0,   0,   0,   0,   0,   0,   0,   0,   0,   0,  -9,  -4,  -2, 1199, 943, 16310,  48,  48,  48,  48, -186,   2, -542, -198, 156, -64, 23384,   0
155, 339174,   0,   0,   0,   0,   0,   0,   0,   0,   0,   0,   0,   0,   0,   0,   0,   0,   0,   0,   0,  -1,   0,  -2, 1204, 891, 16295,  48,  48,  48,  48, -186,   2, -542, -200, 156, -64, 23384,   0
156, 341516,   0,   0,   0,   0,   0,   0,   0,   0,   0,   0,   0,   0,   0,   0,   0,   0,   0,   0,   0,  -1,   5,  -7, 1184, 875, 16205,  48,  48,  48,  48, -164,   5, -534, -223, 156, -63, 23185,   0
157, 343698,   0,   0,   0,   0,   0,   0,   0,   0,   0,   0,   0,   0,   0,   0,   0,   0,   0,   0,   0,   2,  -6,   7, 1149, 871, 16233,  48,  48,  48,  48, -164,   5, -534, -236, 156, -63, 23185,   0
158, 345879,   0,   0,   0,   0,   0,   0,   0,   0,   0,   0,   0,   0,   0,   0,   0,   0,   0,   0,   0,   1,   0,   0, 1176, 911, 16310,  48,  48,  48,  48, -167,   5, -555, -227, 156, -62, 23169,   0
159, 348132,   0,   0,   0,   0,   0,   0,   0,   0,   0,   0,   0,   0,   0,   0,   0,   0,   0,   0,   0,   5,   7,  -1, 1183, 951, 16237,  48,  48,  48,  48, -167,   5, -555, -239, 156, -62, 23169,   0
160, 350234,   0,   0,   0,   0,   0,   0,   0,   0,   0,   0,   0,   0,   0,   0,   0,   0,   0,   0,   0,   0,   2,  -6, 1235, 866, 16326,  48,  48,  48,  48, -168,   2, -550, -226, 156, -61, 23307,   0
161, 352406,   0,   0,   0,   0,   0,   0,   0,   0,   0,   0,   0,   0,   0,   0,   0,   0,   0,   0,   0,  -6,   0,   4, 1192, 863, 16322,  48,  48,  48,  48, -168,   2, -550, -216, 156, -61, 23307,   0
162, 354579,   0,   0,   0,   0,   0,   0,   0,   0,   0,   0,   0,   0,   0,   0,   0,   0,   0,   0,   0,  -3,   9,  -4, 1121, 828, 16338,  48,  48,  48,  48, -173,   7, -546, -203, 156, -60, 23109,   0
163, 356921,   0,   0,   0,   0,   0,   0,   0,   0,   0,   0,   0,   0,   0,   0,   0,   0,   0,   0,   0,   1,  -4,  -5, 1262, 946, 16298,  48,  48,  48,  48, -173,   7, -546, -203, 156, -59, 23109,   0
164, 359102,   0,   0,   0,   0,   0,   0,   0,   0,   0,   0,   0,   0,   0,   0,   0,   0,   0,   0,   0,   0,   7, -11, 1276, 862, 16217,  48,  48,  48,  48, -173,   7, -546, -223, 156, -59, 23109,   0
165, 361283,   0,   0,   0,   0,   0,   0,   0,   0,   0,   0,   0,   0,   0,   0,   0,   0,   0,   0,   0,  -4,  -1,   3, 1209, 795, 16228,  48,  48,  48,  48, -162,  12, -575, -237, 156, -59, 22786,   0
166, 363484,   0,   0,   0,   0,   0,   0,   0,   0,   0,   0,   0,   0,   0,   0,   0,   0,   0,   0,   0,  -4,  -1,   9, 1197, 803, 16330,  48,  48,  48,  48, -162,  12, -575, -223, 156, -58, 22786,   0
167, 365590,   0,   0,   0,   0,   0,   0,   0,   0,   0,   0,   0,   0,   0,   0,   0,   0,   0,   0,   0,  -6,  10,  10, 1239, 894, 16295,  48,  48,  48,  48, -165,   8, -550, -221, 156, -58, 23014,   0
168, 367763,   0,   0,   0,   0,   0,   0,   0,   0,   0,   0,   0,   0,   0,   0,   0,   0,   0,   0,   0,   0,   1,  -3, 1119, 999, 16311,  48,  48,  48,  48, -165,   8, -550, -214, 156, -57, 23014,   0
169, 369936,   0,   0,   0,   0,   0,   0,   0,   0,   0,   0,   0,   0,   0,   0,   0,   0,   0,   0,   0,  -4,   0,   1, 1180, 879, 16322,  48,  48,  48,  48, -172,   7, -550, -206, 156, -56, 23093,   0
170, 372278,   0,   0,   0,   0,   0,   0,   0,   0,   0,   0,   0,   0,   0,   0,   0,   0,   0,   0,   0,  -3,   8,  -8, 1173, 783, 16384,  48,  48,  48,  48, -172,   7, -550, -182, 156, -56, 23093,   0
171, 374459,   0,   0,   0,   0,   0,   0,   0,   0,   0,   0,   0,   0,   0,   0,   0,   0,   0,   0,   0,   7, -11,  12, 1187, 951, 16252,  48,  48,  48,  48, -176,   0, -542, -197, 156, -55, 23466,   0
172, 376640,   0,   0,   0,   0,   0,   0,   0,   0,   0,   0,   0,   0,   0,   0,   0,   0,   0,   0,   0,  -1,   1,  10, 1144, 935, 16295,  48,  48,  48,  48, -176,   0, -542, -198, 156, -55, 23466,   0
173, 378893,   0,   0,   0,   0,   0,   0,   0,   0,   0,   0,   0,   0,   0,   0,   0,   0,   0,   0,   0,   2,  12,  -4, 1245, 782, 16287,  48,  48,  48,  48, -175,   2, -540, -201, 156, -54, 23359,   0
174, 381001,   0,   0,   0,   0,   0,   0,   0,   0,   0,   0,   0,   0,   0,   0,   0,   0,   0,   0,   0,   0,  -7,  13, 1164, 907, 16272,  48,  48,  48,  48, -175,   2, -540, -207, 156, -54, 23359,   0
175, 383176,   0,   0,   0,   0,   0,   0,   0,   0,   0,   0,   0,   0,   0,   0,   0,   0,   0,   0,   0,  -4,  11,  -2, 1227, 894, 16372,  48,  48,  48,  48, -164,   2, -551, -187, 156, -53, 23268,   0
176, 385340,   0,   0,   0,   0,   0,   0,   0,   0,   0,   0,   0,   0,   0,   0,   0,   0,   0,   0,   0,   5,  -7,   0, 1199, 895, 16334,  48,  48,  48,  48, -164,   2, -551, -180, 157, -53, 23268,   0
177, 387682,   0,   0,   0,   0,   0,   0,   0,   0,   0,   0,   0,   0,   0,   0,   0,   0,   0,   0,   0,   1,  -3,   3, 1244, 830, 16318,  48,  48,  48,  48, -164,   4, -565, -178, 156, -52, 23192,   0
178, 389863,   0,   0,   0,   0,   0,   0,   0,   0,   0,   0,   0,   0,   0,   0,   0,   0,   0,   0,   0,  -1,   2,  -1, 1216, 882, 16267,  48,  48,  48,  48, -164,   4, -565, -189, 157, -52, 23192,   0
179, 392043,   0,   0,   0,   0,   0,   0,   0,   0,   0,   0,   0,   0,   0,   0,   0,   0,   0,   0,   0,   7,   6,  -8, 1248, 854, 16314,  48,  48,  48,  48, -155,   6, -555, -186, 157, -51, 23070,   0
180, 394246,   0,   0,   0,   0,   0,   0,   0,   0,   0,   0,   0,   0,   0,   0,   0,   0,   0,   0,   0,   0, -17,   0, 1129, 864, 16322,  48,  48,  48,  48, -155,   6, -555, -182, 157, -51, 23070,   0
181, 396352,   0,   0,   0,   0,   0,   0,   0,   0,   0,   0,   0,   0,   0,   0,   0,   0,   0,   0,   0,   0,   0,  -1, 1160, 879, 16419,  48,  48,  48,  48, -155,   6, -555, -153, 157, -51, 23071,   0
182, 398525,   0,   0,   0,   0,   0,   0,   0,   0,   0,   0,   0,   0,   0,   0,   0,   0,   0,   0,   0,  -4,   9,  -3, 1148, 895, 16295,  48,  48,  48,  48, -161,  11, -558, -161, 157, -50, 22847,   0
183, 400698,   0,   0,   0,   0,   0,   0,   0,   0,   0,   0,   0,   0,   0,   0,   0,   0,   0,   0,   0,  -2,   2,  13, 1157, 811, 16310,  48,  48,  48,  48, -161,  11, -558, -163, 157, -50, 22848,   0
184, 403041,   0,   0,   0,   0,   0,   0,   0,   0,   0,   0,   0,   0,   0,   0,   0,   0,   0,   0,   0,   0,  -5,   0, 1160, 923, 16244,  48,  48,  48,  48, -166,   1, -554, -182, 157, -49, 23335,   0
185, 405221,   0,   0,   0,   0,   0,   0,   0,   0,   0,   0,   0,   0,   0,   0,   0,   0,   0,   0,   0,   0,   6,  -3, 1125, 840, 16268,  48,  48,  48,  48, -166,   1, -554, -191, 157, -49, 23335,   0
186, 407403,   0,   0,   0,   0,   0,   0,   0,   0,   0,   0,   0,   0,   0,   0,   0,   0,   0,   0,   0,   1,   1,  10, 1140, 939, 16342,  48,  48,  48,  48, -161,   8, -561, -181, 157, -48, 23003,   0
187, 409654,   0,   0,   0,   0,   0,   0,   0,   0,   0,   0,   0,   0,   0,   0,   0,   0,   0,   0,   0, -10,   4,  -8, 1204, 855, 16302,  48,  48,  48,  48, -161,   8, -561, -182, 157, -48, 23003,   0
188, 411756,   0,   0,   0,   0,   0,   0,   0,   0,   0,   0,   0,   0,   0,   0,   0,   0,   0,   0,   0,   5,  -3,   3, 1158, 763, 16229,  48,  48,  48,  48, -174,   4, -547, -202, 157, -47, 23222,   0
189, 413929,   0,   0,   0,   0,   0,   0,   0,   0,   0,   0,   0,   0,   0,   0,   0,   0,   0,   0,   0,   0,  -7,  -1, 1153, 811, 16233,  48,  48,  48,  48, -174,   4, -547, -217, 157, -47, 23222,   0
190, 416102,   0,   0,   0,   0,   0,   0,   0,   0,   0,   0,   0,   0,   0,   0,   0,   0,   0,   0,   0,   0,  -1,   0, 1283, 846, 16306,  48,  48,  48,  48, -180,  10, -541, -213, 157, -46, 23033,   0
191, 418443,   0,   0,   0,   0,   0,   0,   0,   0,   0,   0,   0,   0,   0,   0,   0,   0,   0,   0,   0,   1,   7,  -4, 1247, 842, 16403,  48,  48,  48,  48, -180,  10, -541, -184, 157, -46, 23034,   0
192, 420624,   0,   0,   0,   0,   0,   0,   0,   0,   0,   0,   0,   0,   0,   0,   0,   0,   0,   0,   0,   0,   0,   1, 1128, 963, 16272,  48,  48,  48,  48, -169,   8, -552, -192, 157, -45, 23056,   0
193, 422806,   0,   0,   0,   0,   0,   0,   0,   0,   0,   0,   0,   0,   0,   0,   0,   0,   0,   0,   0,   4,   4,  -3, 1208, 882, 16162,  48,  48,  48,  48, -169,   8, -552, -227, 157, -45, 23056,   0
194, 425008,   0,   0,   0,   0,   0,   0,   0,   0,   0,   0,   0,   0,   0,   0,   0,   0,   0,   0,   0,   0,  14,  -3, 1168, 867, 16342,  48,  48,  48,  48, -186,   4, -535, -212, 157, -44, 23282,   0
195, 427114,   0,   0,   0,   0,   0,   0,   0,   0,   0,   0,   0,   0,   0,   0,   0,   0,   0,   0,   0,   4,  10,   0, 1199, 923, 16322,  48,  48,  48,  48, -186,   4, -535, -203, 157, -44, 23282,   0
196, 429287,   0,   0,   0,   0,   0,   0,   0,   0,   0,   0,   0,   0,   0,   0,   0,   0,   0,   0,   0,   4, -10,  -5, 1177, 823, 16303,  48,  48,  48,  48, -176,   9, -541, -201, 157, -43, 23056,   0
197, 431460,   0,   0,   0,   0,   0,   0,   0,   0,   0,   0,   0,   0,   0,   0,   0,   0,   0,   0,   0,   9,   2,   2, 1181, 847, 16275,  48,  48,  48,  48, -176,   9, -541, -206, 157, -43, 23056,   0
198, 433803,   0,   0,   0,   0,   0,   0,   0,   0,   0,   0,   0,   0,   0,   0,   0,   0,   0,   0,   0,  -2,   1,  10, 1199, 927, 16338,  48,  48,  48,  48, -176,   9, -541, -194, 157, -42, 23056,   0
199, 435985,   0,   0,   0,   0,   0,   0,   0,   0,   0,   0,   0,   0,   0,   0,   0,   0,   0,   0,   0,   3,  -6,  -4, 1193, 847, 16159,  48,  48,  48,  48, -175,   9, -562, -230, 157, -42, 23001,   0
200, 438168,   0,   0,   0,   0,   0,   0,   0,   0,   0,   0,   0,   0,   0,   0,   0,   0,   0,   0,   0,   2,  -4, -11, 1216, 843, 16334,  48,  48,  48,  48, -175,   9, -562, -216, 157, -42, 23001,   0
201, 440421,   0,   0,   0,   0,   0,   0,   0,   0,   0,   0,   0,   0,   0,   0,   0,   0,   0,   0,   0,   0,   6,   6, 1251, 902, 16275,  48,  48,  48,  48, -171,   9, -561, -219, 157, -41, 22989,   0
202, 442522,   0,   0,   0,   0,   0,   0,   0,   0,   0,   0,   0,   0,   0,   0,   0,   0,   0,   0,   0,  -4, -12,  -4, 1312, 829, 16220,  48,  48,  48,  48, -171,   9, -561, -236, 157, -41, 22990,   0
203, 444695,   0,   0,   0,   0,   0,   0,   0,   0,   0,   0,   0,   0,   0,   0,   0,   0,   0,   0,   0,  -1,  12,   3, 1149, 831, 16229,  48,  48,  48,  48, -171,  15, -545, -247, 157, -40, 22756,   0
204, 446868,   0,   0,   0,   0,   0,   0,   0,   0,   0,   0,   0,   0,   0,   0,   0,   0,   0,   0,   0,  -3,   0,   0, 1225, 759, 16372,  48,  48,  48,  48, -171,  15, -545, -220, 157, -40, 22757,   0
205, 449210,   0,   0,   0,   0,   0,   0,   0,   0,   0,   0,   0,   0,   0,   0,   0,   0,   0,   0,   0,  -2,  13,   0, 1233, 747, 16263,  48,  48,  48,  48, -169,  10, -547, -225, 157, -40, 22957,   0
206, 451392,   0,   0,   0,   0,   0,   0,   0,   0,   0,   0,   0,   0,   0,   0,   0,   0,   0,   0,   0,  -2,  12,  -4, 1300, 861, 16162,  48,  48,  48,  48, -169,  10, -547, -256, 157, -39, 22957,   0
207, 453572,   0,   0,   0,   0,   0,   0,   0,   0,   0,   0,   0,   0,   0,   0,   0,   0,   0,   0,   0,   4,  11,  -8, 1145, 855, 16295,  48,  48,  48,  48, -175,   4, -544, -247, 157, -39, 23261,   0
208, 455773,   0,   0,   0,   0,   0,   0,   0,   0,   0,   0,   0,   0,   0,   0,   0,   0,   0,   0,   0,   3,  10,  -1, 1156, 891, 16342,  48,  48,  48,  48, -175,   4, -544, -228, 157, -38, 23261,   0
209, 457879,   0,   0,   0,   0,   0,   0,   0,   0,   0,   0,   0,   0,   0,   0,   0,   0,   0,   0,   0,  -2,  -2,  -3, 1069, 880, 16319,  48,  48,  48,  48, -169,   5, -539, -217, 157, -38, 23190,   0
210, 460052,   0,   0,   0,   0,   0,   0,   0,   0,   0,   0,   0,   0,   0,   0,   0,   0,   0,   0,   0,   6,   0,   0, 1130, 832, 16151,  48,  48,  48,  48, -169,   5, -539, -251, 157, -37, 23190,   0
211, 462225,   0,   0,   0,   0,   0,   0,   0,   0,   0,   0,   0,   0,   0,   0,   0,   0,   0,   0,   0,   0,  -3,  -7, 1105, 832, 16342,  48,  48,  48,  48, -156,   3, -556, -230, 157, -37, 23197,   0
212, 464568,   0,   0,   0,   0,   0,   0,   0,   0,   0,   0,   0,   0,   0,   0,   0,   0,   0,   0,   0,   2,  -4,   8, 1267, 886, 16221,  48,  48,  48,  48, -156,   3, -556, -245, 157, -36, 23197,   0
213, 466749,   0,   0,   0,   0,   0,   0,   0,   0,   0,   0,   0,   0,   0,   0,   0,   0,   0,   0,   0,   0,   7,  -8, 1226, 759, 16186,  48,  48,  48,  48, -179,   9, -553, -266, 157, -36, 23031,   0
214, 468930,   0,   0,   0,   0,   0,   0,   0,   0,   0,   0,   0,   0,   0,   0,   0,   0,   0,   0,   0,  -5,  12,   1, 1169, 763, 16396,  48,  48,  48,  48, -179,   9, -553, -230, 157, -36, 23032,   0
215, 471182,   0,   0,   0,   0,   0,   0,   0,   0,   0,   0,   0,   0,   0,   0,   0,   0,   0,   0,   0,   4,   0,   2, 1223, 882, 16380,  48,  48,  48,  48, -170,   2, -527, -204, 157, -35, 23349,   0
216, 473284,   0,   0,   0,   0,   0,   0,   0,   0,   0,   0,   0,   0,   0,   0,   0,   0,   0,   0,   0,  -7,  -1,  -5, 1224, 830, 16228,  48,  48,  48,  48, -170,   2, -527, -220, 157, -35, 23349,   0
217, 475456,   0,   0,   0,   0,   0,   0,   0,   0,   0,   0,   0,   0,   0,   0,   0,   0,   0,   0,   0,   0,   2,  -5, 1176, 847, 16396,  48,  48,  48,  48, -170,   2, -527, -191, 157, -34, 23350,   0
218, 477646,   0,   0,   0,   0,   0,   0,   0,   0,   0,   0,   0,   0,   0,   0,   0,   0,   0,   0,   0,  -3,  -7,  13, 1224, 886, 16236,  48,  48,  48,  48, -158,   6, -547, -208, 157, -34, 23069,   0
219, 479972,   0,   0,   0,   0,   0,   0,   0,   0,   0,   0,   0,   0,   0,   0,   0,   0,   0,   0,   0,   0,   2,  -1, 1145, 808, 16419,  48,  48,  48,  48, -158,   6, -547, -174, 157, -33, 23070,   0
220, 482153,   0,   0,   0,   0,   0,   0,   0,   0,   0,   0,   0,   0,   0,   0,   0,   0,   0,   0,   0,  -9,  -4,   0, 1164, 879, 16295,  48,  48,  48,  48, -167,   7, -558, -178, 157, -33, 23050,   0
221, 484334,   0,   0,   0,   0,   0,   0,   0,   0,   0,   0,   0,   0,   0,   0,   0,   0,   0,   0,   0,  -3,   5, -11, 1163, 959, 16276,  48,  48,  48,  48, -167,   7, -558, -186, 157, -32, 23050,   0
222, 486537,   0,   0,   0,   0,   0,   0,   0,   0,   0,   0,   0,   0,   0,   0,   0,   0,   0,   0,   0,   4,  -3,   7, 1168, 899, 16260,  48,  48,  48,  48, -171,  12, -550, -197, 157, -32, 22893,   0
223, 488644,   0,   0,   0,   0,   0,   0,   0,   0,   0,   0,   0,   0,   0,   0,   0,   0,   0,   0,   0,  -9,   8,  -1, 1193, 835, 16217,  48,  48,  48,  48, -171,  12, -550, -217, 157, -32, 22893,   0
224, 490816,   0,   0,   0,   0,   0,   0,   0,   0,   0,   0,   0,   0,   0,   0,   0,   0,   0,   0,   0,   2,   7,   0, 1184, 915, 16244,  48,  48,  48,  48, -174,   7, -549, -227, 157, -31, 23110,   0
225, 492989,   0,   0,   0,   0,   0,   0,   0,   0,   0,   0,   0,   0,   0,   0,   0,   0,   0,   0,   0,  -4,  -8,  -3, 1148, 871, 16369,  48,  48,  48,  48, -174,   7, -549, -204, 157, -31, 23110,   0
226, 495332,   0,   0,   0,   0,   0,   0,   0,   0,   0,   0,   0,   0,   0,   0,   0,   0,   0,   0,   0,   3,  -5, -11, 1278, 918, 16333,  48,  48,  48,  48, -159,  15, -520, -194, 157, -30, 22701,   0
227, 497514,   0,   0,   0,   0,   0,   0,   0,   0,   0,   0,   0,   0,   0,   0,   0,   0,   0,   0,   0,   6,   4,  10, 1106, 812, 16287,  48,  48,  48,  48, -159,  15, -520, -196, 157, -30, 22701,   0
228, 499695,   0,   0,   0,   0,   0,   0,   0,   0,   0,   0,   0,   0,   0,   0,   0,   0,   0,   0,   0,  -5,   5,  -5, 1085, 884, 16280,  48,  48,  48,  48, -163,   6, -556, -200, 157, -29, 23110,   0
229, 501947,   0,   0,   0,   0,   0,   0,   0,   0,   0,   0,   0,   0,   0,   0,   0,   0,   0,   0,   0,  -2,   1,   9, 1132, 915, 16303,  48,  48,  48,  48, -163,   6, -556, -197, 157, -29, 23110,   0
230, 504048,   0,   0,   0,   0,   0,   0,   0,   0,   0,   0,   0,   0,   0,   0,   0,   0,   0,   0,   0,   3,   0,  -4, 1168, 851, 16431,  48,  48,  48,  48, -166,  11, -561, -163, 157, -28, 22895,   0
231, 506222,   0,   0,   0,   0,   0,   0,   0,   0,   0,   0,   0,   0,   0,   0,   0,   0,   0,   0,   0,   0,  -5,  -3, 1180, 847, 16349,  48,  48,  48,  48, -166,  11, -561, -154, 157, -28, 22896,   0
232, 508395,   0,   0,   0,   0,   0,   0,   0,   0,   0,   0,   0,   0,   0,   0,   0,   0,   0,   0,   0,   3,   3,   5, 1157, 827, 16237,  48,  48,  48,  48, -188,   5, -537, -176, 157, -28, 23262,   0
233, 510737,   0,   0,   0,   0,   0,   0,   0,   0,   0,   0,   0,   0,   0,   0,   0,   0,   0,   0,   0,   2,   0,   1, 1077, 892, 16288,  48,  48,  48,  48, -188,   5, -537, -181, 157, -27, 23262,   0
234, 512918,   0,   0,   0,   0,   0,   0,   0,   0,   0,   0,   0,   0,   0,   0,   0,   0,   0,   0,   0,   4,  10,  -7, 1192, 827, 16373,  48,  48,  48,  48, -188,   5, -537, -164, 157, -27, 23262,   0
235, 515099,   0,   0,   0,   0,   0,   0,   0,   0,   0,   0,   0,   0,   0,   0,   0,   0,   0,   0,   0,   2,  -2, -15, 1184, 847, 16291,  48,  48,  48,  48, -168,  13, -550, -170, 157, -26, 22814,   0
236, 517302,   0,   0,   0,   0,   0,   0,   0,   0,   0,   0,   0,   0,   0,   0,   0,   0,   0,   0,   0,  -3,   0,   4, 1164, 919, 16268,  48,  48,  48,  48, -168,  13, -550, -181, 158, -26, 22814,   0
237, 519408,   0,   0,   0,   0,   0,   0,   0,   0,   0,   0,   0,   0,   0,   0,   0,   0,   0,   0,   0,   3,   4,  -5, 1270, 910, 16403,  48,  48,  48,  48, -163,   1, -557, -157, 158, -25, 23316,   0
238, 521581,   0,   0,   0,   0,   0,   0,   0,   0,   0,   0,   0,   0,   0,   0,   0,   0,   0,   0,   0,  -1,   0,   1, 1172, 775, 16509,  48,  48,  48,  48, -163,   1, -557, -108, 158, -25, 23316,   0
239, 523753,   0,   0,   0,   0,   0,   0,   0,   0,   0,   0,   0,   0,   0,   0,   0,   0,   0,   0,   0,  -4,   0,  -2, 1153, 804, 16400,  48,  48,  48,  48, -170,   8, -546, -95, 157, -25, 23041,   0
240, 526096,   0,   0,   0,   0,   0,   0,   0,   0,   0,   0,   0,   0,   0,   0,   0,   0,   0,   0,   0,   3,  -3,  -2, 1136, 860, 16373,  48,  48,  48,  48, -170,   8, -546, -91, 158, -24, 23041,   0
241, 528278,   0,   0,   0,   0,   0,   0,   0,   0,   0,   0,   0,   0,   0,   0,   0,   0,   0,   0,   0,   0,  -5,  -3, 1085, 876, 16233,  48,  48,  48,  48, -170,   2, -542, -122, 158, -24, 23344,   0
242, 530458,   0,   0,   0,   0,   0,   0,   0,   0,   0,   0,   0,   0,   0,   0,   0,   0,   0,   0,   0,  -2,   8,   1, 1197, 811, 16279,  48,  48,  48,  48, -170,   2, -542, -138, 158, -24, 23345,   0
243, 532713,   0,   0,   0,   0,   0,   0,   0,   0,   0,   0,   0,   0,   0,   0,   0,   0,   0,   0,   0,   9,   3,  -6, 1283, 862, 16361,  48,  48,  48,  48, -156,   9, -556, -131, 158, -23, 22908,   0
244, 534814,   0,   0,   0,   0,   0,   0,   0,   0,   0,   0,   0,   0,   0,   0,   0,   0,   0,   0,   0,   0,  -1,   0, 1152, 923, 16279,  48,  48,  48,  48, -156,   9, -556, -145, 158, -23, 22908,   0
245, 536987,   0,   0,   0,   0,   0,   0,   0,   0,   0,   0,   0,   0,   0,   0,   0,   0,   0,   0,   0,   0,   3,  -7, 1217, 807, 16248,  48,  48,  48,  48, -174,   4, -538, -165, 158, -22, 23260,   0
246, 539160,   0,   0,   0,   0,   0,   0,   0,   0,   0,   0,   0,   0,   0,   0,   0,   0,   0,   0,   0,  -6,   5,   4, 1209, 807, 16291,  48,  48,  48,  48, -174,   4, -538, -171, 158, -22, 23260,   0
247, 541502,   0,   0,   0,   0,   0,   0,   0,   0,   0,   0,   0,   0,   0,   0,   0,   0,   0,   0,   0,   4,   0,  -3, 1104, 972, 16252,  48,  48,  48,  48, -167,   6, -552, -185, 158, -21, 23121,   0
248, 543684,   0,   0,   0,   0,   0,   0,   0,   0,   0,   0,   0,   0,   0,   0,   0,   0,   0,   0,   0,  -4,   0,  11, 1141, 847, 16221,  48,  48,  48,  48, -167,   6, -552, -206, 158, -21, 23121,   0
249, 545864,   0,   0,   0,   0,   0,   0,   0,   0,   0,   0,   0,   0,   0,   0,   0,   0,   0,   0,   0,  -5,   6,  -9, 1148, 887, 16279,  48,  48,  48,  48, -174,   2, -546, -208, 158, -21, 23343,   0
250, 548066,   0,   0,   0,   0,   0,   0,   0,   0,   0,   0,   0,   0,   0,   0,   0,   0,   0,   0,   0,  -3,   1,   6, 1199, 871, 16411,  48,  48,  48,  48, -174,   2, -546, -177, 158, -20, 23343,   0
251, 550173,   0,   0,   0,   0,   0,   0,   0,   0,   0,   0,   0,   0,   0,   0,   0,   0,   0,   0,   0,  -4,  -5,   5, 1287, 838, 16275,  48,  48,  48,  48, -174,   2, -546, -185, 158, -20, 23343,   0
252, 552346,   0,   0,   0,   0,   0,   0,   0,   0,   0,   0,   0,   0,   0,   0,   0,   0,   0,   0,   0,  10,   3,  -6, 1140, 951, 16283,  48,  48,  48,  48, -168,   0, -560, -190, 158, -19, 23370,   0
253, 554519,   0,   0,   0,   0,   0,   0,   0,   0,   0,   0,   0,   0,   0,   0,   0,   0,   0,   0,   0,   0,  -6,  -2, 1133, 804, 16307,  48,  48,  48,  48, -168,   0, -560, -188, 158, -19, 23370,   0
254, 556862,   0,   0,   0,   0,   0,   0,   0,   0,   0,   0,   0,   0,   0,   0,   0,   0,   0,   0,   0,   2,   4,   6, 1136, 947, 16182,  48,  48,  48,  48, -162,   9, -559, -217, 158, -18, 22954,   0
255, 559043,   0,   0,   0,   0,   0,   0,   0,   0,   0,   0,   0,   0,   0,   0,   0,   0,   0,   0,   0, -12,  14,   0, 1283, 858, 16259,  48,  48,  48,  48, -162,   9, -559, -224, 158, -18, 22955,   0
256, 561224,   0,   0,   0,   0,   0,   0,   0,   0,   0,   0,   0,   0,   0,   0,   0,   0,   0,   0,   0,   8,  -8,   4, 1196, 855, 16291,  48,  48,  48,  48, -171,   8, -564, -221, 158, -18, 23053,   0
257, 563477,   0,   0,   0,   0,   0,   0,   0,   0,   0,   0,   0,   0,   0,   0,   0,   0,   0,   0,   0,  -7,  -1,   0, 1271, 862, 16275,  48,  48,  48,  48, -171,   8, -564, -222, 158, -17, 23053,   0
258, 565579,   0,   0,   0,   0,   0,   0,   0,   0,   0,   0,   0,   0,   0,   0,   0,   0,   0,   0,   0,   4,   6,  -4, 1141, 812, 16272,  48,  48,  48,  48, -180,   3, -535, -224, 158, -17, 23333,   0
259, 567752,   0,   0,   0,   0,   0,   0,   0,   0,   0,   0,   0,   0,   0,   0,   0,   0,   0,   0,   0,   0,   5,   2, 1224, 823, 16372,  48,  48,  48,  48, -180,   3, -535, -200, 158, -16, 23333,   0
260, 569925,   0,   0,   0,   0,   0,   0,   0,   0,   0,   0,   0,   0,   0,   0,   0,   0,   0,   0,   0,  -5,  -1,  -1, 1238, 938, 16384,  48,  48,  48,  48, -168,   5, -555, -177, 158, -16, 23161,   0
261, 572267,   0,   0,   0,   0,   0,   0,   0,   0,   0,   0,   0,   0,   0,   0,   0,   0,   0,   0,   0,   2,   3,  14, 1100, 944, 16284,  48,  48,  48,  48, -168,   5, -555, -183, 158, -15, 23161,   0
262, 574457,   0,   0,   0,   0,   0,   0,   0,   0,   0,   0,   0,   0,   0,   0,   0,   0,   0,   0,   0,  -5,  -2,  -1, 1246, 946, 16407,  48,  48,  48,  48, -172,   6, -551, -156, 158, -15, 23169,   0
263, 576639,   0,   0,   0,   0,   0,   0,   0,   0,   0,   0,   0,   0,   0,   0,   0,   0,   0,   0,   0,  -4,   1,  -7, 1102, 768, 16385,  48,  48,  48,  48, -172,   6, -551, -139, 158, -15, 23169,   0
264, 578832,   0,   0,   0,   0,   0,   0,   0,   0,   0,   0,   0,   0,   0,   0,   0,   0,   0,   0,   0,   1,   7,  12, 1289, 954, 16473,  48,  48,  48,  48, -172,   4, -566, -103, 158, -14, 23202,   0
265, 580938,   0,   0,   0,   0,   0,   0,   0,   0,   0,   0,   0,   0,   0,   0,   0,   0,   0,   0,   0,  -3,   3,  -6, 1239, 850, 16357,  48,  48,  48,  48, -172,   4, -566, -102, 158, -14, 23202,   0
266, 583111,   0,   0,   0,   0,   0,   0,   0,   0,   0,   0,   0,   0,   0,   0,   0,   0,   0,   0,   0,   5,   3,   6, 1195, 843, 16485,  48,  48,  48,  48, -169,   6, -552, -68, 158, -13, 23132,   0
267, 585284,   0,   0,   0,   0,   0,   0,   0,   0,   0,   0,   0,   0,   0,   0,   0,   0,   0,   0,   0,  -6,   3,   1, 1211, 935, 16400,  48,  48,  48,  48, -169,   6, -552, -61, 158, -13, 23132,   0
268, 587627,   0,   0,   0,   0,   0,   0,   0,   0,   0,   0,   0,   0,   0,   0,   0,   0,   0,   0,   0,  13,   4,   5, 1196, 883, 16268,  48,  48,  48,  48, -169,   6, -552, -89, 158, -13, 23132,   0
269, 589808,   0,   0,   0,   0,   0,   0,   0,   0,   0,   0,   0,   0,   0,   0,   0,   0,   0,   0,   0,  -3,  -4,   0, 1230, 978, 16330,  48,  48,  48,  48, -163,   7, -560, -97, 158, -12, 23055,   0
270, 591988,   0,   0,   0,   0,   0,   0,   0,   0,   0,   0,   0,   0,   0,   0,   0,   0,   0,   0,   0,   0,   3,  14, 1299, 850, 16364,  48,  48,  48,  48, -163,   7, -560, -95, 158, -12, 23055,   0
271, 594241,   0,   0,   0,   0,   0,   0,   0,   0,   0,   0,   0,   0,   0,   0,   0,   0,   0,   0,   0,   2,   8,   5, 1055, 769, 16221,  48,  48,  48,  48, -185,  11, -546, -128, 158, -11, 23026,   0
272, 596343,   0,   0,   0,   0,   0,   0,   0,   0,   0,   0,   0,   0,   0,   0,   0,   0,   0,   0,   0,   1,  -6, -14, 1058, 809, 16319,  48,  48,  48,  48, -185,  11, -546, -132, 158, -11, 23026,   0
273, 598516,   0,   0,   0,   0,   0,   0,   0,   0,   0,   0,   0,   0,   0,   0,   0,   0,   0,   0,   0,   0,   1,   0, 1055, 829, 16167,  48,  48,  48,  48, -159,   6, -571, -173, 158, -11, 23062,   0
274, 600689,   0,   0,   0,   0,   0,   0,   0,   0,   0,   0,   0,   0,   0,   0,   0,   0,   0,   0,   0,   0,  -3,  -7, 1336, 1021, 16353,  48,  48,  48,  48, -159,   6, -571, -163, 158, -10, 23062,   0
275, 603030,   0,   0,   0,   0,   0,   0,   0,   0,   0,   0,   0,   0,   0,   0,   0,   0,   0,   0,   0,   7, -13,  -8, 1413, 884, 16484,  48,  48,  48,  48, -175,   1, -545, -121, 159, -10, 23373,   0
276, 605212,   0,   0,   0,   0,   0,   0,   0,   0,   0,   0,   0,   0,   0,   0,   0,   0,   0,   0,   0,   0,   3,  14, 1302, 910, 16458,  48,  48,  48,  48, -175,   1, -545, -92, 159,  -9, 23373,   0
277, 607393,   0,   0,   0,   0,   0,   0,   0,   0,   0,   0,   0,   0,   0,   0,   0,   0,   0,   0,   0,  -4,  19,   2, 1289, 973, 16388,  48,  48,  48,  48, -161,   2, -532, -84, 159,  -9, 23286,   0
278, 609598,   0,   0,   0,   0,   0,   0,   0,   0,   0,   0,   0,   0,   0,   0,   0,   0,   0,   0,   0,   5,   0, -15, 1022, 837, 16268,  48,  48,  48,  48, -161,   2, -532, -107, 159,  -8, 23286,   0
279, 611704,   0,   0,   0,   0,   0,   0,   0,   0,   0,   0,   0,   0,   0,   0,   0,   0,   0,   0,   0,   3,   8,   5, 1157, 879, 16205,  48,  48,  48,  48, -162,  14, -538, -143, 159,  -8, 22754,   0
280, 613877,   0,   0,   0,   0,   0,   0,   0,   0,   0,   0,   0,   0,   0,   0,   0,   0,   0,   0,   0,  -4,  -2,  -9, 1170, 771, 16139,  48,  48,  48,  48, -162,  14, -538, -190, 159,  -8, 22754,   0
281, 616050,   0,   0,   0,   0,   0,   0,   0,   0,   0,   0,   0,   0,   0,   0,   0,   0,   0,   0,   0,  -1,  -5,   1, 1219, 906, 16357,  48,  48,  48,  48, -165,   6, -565, -176, 159,  -7, 23113,   0
282, 618393,   0,   0,   0,   0,   0,   0,   0,   0,   0,   0,   0,   0,   0,   0,   0,   0,   0,   0,   0,   2, -11,  -2, 1325, 957, 16430,  48,  48,  48,  48, -165,   6, -565, -145, 159,  -7, 23113,   0
283, 620573,   0,   0,   0,   0,   0,   0,   0,   0,   0,   0,   0,   0,   0,   0,   0,   0,   0,   0,   0,   1,  -1,   9, 1293, 977, 16435,  48,  48,  48,  48, -163,   6, -544, -118, 159,  -6, 23108,   0
284, 622755,   0,   0,   0,   0,   0,   0,   0,   0,   0,   0,   0,   0,   0,   0,   0,   0,   0,   0,   0,   0,   7,  -1, 1158, 755, 16252,  48,  48,  48,  48, -163,   6, -544, -140, 159,  -6, 23108,   0
285, 625008,   0,   0,   0,   0,   0,   0,   0,   0,   0,   0,   0,   0,   0,   0,   0,   0,   0,   0,   0,   7,   7,   4, 1211, 907, 16361,  48,  48,  48,  48, -168,   0, -531, -132, 159,  -6, 23400,   0
286, 627110,   0,   0,   0,   0,   0,   0,   0,   0,   0,   0,   0,   0,   0,   0,   0,   0,   0,   0,   0,  -7,   9,   1, 1181, 843, 16205,  48,  48,  48,  48, -168,   0, -531, -164, 159,  -5, 23400,   0
287, 629283,   0,   0,   0,   0,   0,   0,   0,   0,   0,   0,   0,   0,   0,   0,   0,   0,   0,   0,   0,  -6,   0,  -3, 1198, 967, 16353,  48,  48,  48,  48, -168,   0, -531, -154, 159,  -5, 23400,   0
288, 631456,   0,   0,   0,   0,   0,   0,   0,   0,   0,   0,   0,   0,   0,   0,   0,   0,   0,   0,   0,   0,   2, -10, 1187, 919, 16322,  48,  48,  48,  48, -172,   3, -553, -153, 159,  -4, 23269,   0
289, 633797,   0,   0,   0,   0,   0,   0,   0,   0,   0,   0,   0,   0,   0,   0,   0,   0,   0,   0,   0, -14,   5,   5, 1159, 919, 16536,  48,  48,  48,  48, -172,   3, -553, -98, 159,  -4, 23269,   0
290, 635979,   0,   0,   0,   0,   0,   0,   0,   0,   0,   0,   0,   0,   0,   0,   0,   0,   0,   0,   0,   4,   4, -18, 1211, 915, 16357,  48,  48,  48,  48, -170,   6, -539, -97, 159,  -4, 23155,   0
