loopIteration, time (us), axisP[0], axisP[1], axisP[2], axisI[0], axisI[1], axisI[2], axisD[0], axisD[1], axisF[0], axisF[1], axisF[2], rcCommand[0], rcCommand[1], rcCommand[2], rcCommand[3], setpoint[0], setpoint[1], setpoint[2], setpoint[3], gyroADC[0], gyroADC[1], gyroADC[2], accSmooth[0], accSmooth[1], accSmooth[2], motor[0], motor[1], motor[2], motor[3], magADC[0], magADC[1], magADC[2], BaroAlt (cm), debug[0], debug[1], debug[2], debug[3]
  1, 1372,   0,   0,   0,   0,   0, -100,   0,   0,   0,   0,   0,   0,   0,   0,   0,   0,   0,   0,  91,  -3,  -6,   9, 1171, 931, 16396,  91,  91,  91,  91, -165, -24, -547, -7,   0,   0,   0,   0
  2, 3323,   0,   0,   0,   0,   0, -100,   0,   0,   0,   0,   0,   0,   0,   0,   0,   0,   0,   0,  91,   5,   6,   0, 1126, 992, 16525,  91,  91,  91,  91, -165, -24, -547, 22,   0,   0,   0,   0
  3, 5521,   0,   0,   0,   0,   0, -99,   0,   0,   0,   0,   0,   0,   0,   0,   0,   0,   0,   0,  91, -10, -16, -13, 1178, 1031, 16384,  91,  91,  91,  91, -165, -24, -547, 10,   0,   0,   0,   0
  4, 7721,   0,   0,   0,   0,   0, -99,   0,   0,   0,   0,   0,   0,   0,   0,   0,   0,   0,   0,  91, -11,   3,   0, 1103, 964, 16443,  91,  91,  91,  91, -165, -24, -547, 16,   0,   0,   0,   0
  5, 9834,   0,   0,   0,   0,   0, -99,   0,   0,   0,   0,   0,   0,   0,   0,   0,   0,   0,   0,  91,  -1,   4,  -7, 1079, 1008, 16494,  91,  91,  91,  91, -156, -16, -560, 34,   0,   0,   0,   0
  6, 11941,   0,   0,   0,   0,   0, -99,   0,   0,   0,   0,   0,   0,   0,   0,   0,   0,   0,   0,  91,  -3,   8,   4, 1133, 1023, 16579,  91,  91,  91,  91, -156, -16, -560, 72,   0,   0,   0,   0
  7, 14111,   0,   0,   0,   0,   0, -99,   0,   0,   0,   0,   0,   0,   0,   0,   0,   0,   0,   0,  91, -11,  -8,  -5, 1019, 1033, 16459,  91,  91,  91,  91, -166, -10, -557, 73,   0,   0,   0,   0
  8, 16284,   0,   0,   0,   0,   0, -99,   0,   0,   0,   0,   0,   0,   0,   0,   0,   0,   0,   0,  91,  -1,   1,   2, 1115, 928, 16490,  91,  91,  91,  91, -166, -10, -557, 82,   0,   0,   0,   0
  9, 18666,   0,   0,   0,   0,   0, -99,   0,   0,   0,   0,   0,   0,   0,   0,   0,   0,   0,   0,  91,  -8,  -4,   5, 1024, 921, 16471,  91,  91,  91,  91, -172, -15, -548, 84,   0,   0,   0,   0
 10, 20805,   0,   0,   0,   0,   0, -99,   0,   0,   0,   0,   0,   0,   0,   0,   0,   0,   0,   0,  91,  -1,   7,   0, 1047, 1016, 16471,  91,  91,  91,  91, -172, -15, -548, 85,   0,   0,   0,   0
 11, 22985,   0,   0,   0,   0,   0, -99,   0,   0,   0,   0,   0,   0,   0,   0,   0,   0,   0,   0,  91,  -4,   1,  -2, 1169, 1023, 16540,  91,  91,  91,  91, -158, -19, -547, 103,   0,   0,   0,   0
 12, 25225,   0,   0,   0,   0,   0, -99,   0,   0,   0,   0,   0,   0,   0,   0,   0,   0,   0,   0,  91, -12,   5,  -9, 1123, 972, 16486,  91,  91,  91,  91, -158, -19, -547, 105,   0,   0,   0,   0
 13, 27323,   0,   0,   0,   0,   0, -99,   0,   0,   0,   0,   0,   0,   0,   0,   0,   0,   0,   0,  91,  -3,   1,  -8, 1027, 1017, 16467,  91,  91,  91,  91, -159, -13, -554, 102,   0,   0,   0,   0
 14, 29496,   0,   0,   0,   0,   0, -99,   0,   0,   0,   0,   0,   0,   0,   0,   0,   0,   0,   0,  91, -21,  10,  -2, 1012, 961, 16568,  91,  91,  91,  91, -159, -13, -554, 125,   0,   0,   0,   0
 15, 31669,   0,   0,   0,   0,   0, -99,   0,   0,   0,   0,   0,   0,   0,   0,   0,   0,   0,   0,  91,  -5, -11,   7, 1143, 987, 16342,  91,  91,  91,  91, -158, -16, -549, 86,   0,   0,   0,   0
 16, 34016,   0,   0,   0,   0,   0, -99,   0,   0,   0,   0,   0,   0,   0,   0,   0,   0,   0,   0,  91,  -2,   6,  -3, 1092, 940, 16435,  91,  91,  91,  91, -158, -16, -549, 77,   0,   0,   0,   0
 17, 36188,   0,   0,   0,   0,   0, -99,   0,   0,   0,   0,   0,   0,   0,   0,   0,   0,   0,   0,  91,   0,  -2,  11, 1060, 988, 16401,  91,  91,  91,  91, -157, -23, -546, 61,   0,   0,   0,   0
 18, 38395,   0,   0,   0,   0,   0, -99,   0,   0,   0,   0,   0,   0,   0,   0,   0,   0,   0,   0,  91,   7,   0, -10, 1065, 865, 16428,  91,  91,  91,  91, -157, -23, -546, 54,   0,   0,   0,   0
 19, 40599,   0,   0,   0,   0,   0, -99,   0,   0,   0,   0,   0,   0,   0,   0,   0,   0,   0,   0,  91,  -5,   2,   4, 1068, 956, 16435,  91,  91,  91,  91, -161, -20, -545, 50,   0,   0,   0,   0
 20, 42706,   0,   0,   0,   0,   0, -99,   0,   0,   0,   0,   0,   0,   0,   0,   0,   0,   0,   0,  91,   2,   0,  -4, 986, 834, 16381,  91,  91,  91,  91, -161, -20, -545, 34,   0,   0,   0,   0
 21, 44878,   0,   0,   0,   0,   0, -99,   0,   0,   0,   0,   0,   0,   0,   0,   0,   0,   0,   0,  91,  -9,  -7,   5, 1013, 881, 16424,  91,  91,  91,  91, -161, -20, -545, 31,   0,   0,   0,   0
 22, 47053,   0,   0,   0,   0,   0, -99,   0,   0,   0,   0,   0,   0,   0,   0,   0,   0,   0,   0,  91,   6,  13,   9, 1072, 956, 16307,  91,  91,  91,  91, -177, -20, -542, -1,   0,   0,   0,   0
 23, 49432,   0,   0,   0,   0,   0, -99,   0,   0,   0,   0,   0,   0,   0,   0,   0,   0,   0,   0,  91,   2,   3,  11, 1085, 880, 16361,  91,  91,  91,  91, -177, -20, -542, -15,   0,   0,   0,   0
 24, 51571,   0,   0,   0,   0,   0, -100,   0,   0,   0,   0,   0,   0,   0,   0,   0,   0,   0,   0,  91,  -1,  -9,   4, 1075, 968, 16509,  91,  91,  91,  91, -171, -12, -561, 10,   0,   0,   0,   0
 25, 53777,   0,   0,   0,   0,   0, -99,   0,   0,   0,   0,   0,   0,   0,   0,   0,   0,   0,   0,  91,   0,  -3,  -7, 1111, 992, 16361,  91,  91,  91,  91, -171, -12, -561, -5,   0,   0,   0,   0
 26, 55983,   0,   0,   0,   0,   0, -99,   0,   0,   0,   0,   0,   0,   0,   0,   0,   0,   0,   0,  91,  -6,   7,  -8, 1041, 865, 16556,  91,  91,  91,  91, -165, -14, -541, 30,   0,   0,   0,   0
 27, 58088,   0,   0,   0,   0,   0, -99,   0,   0,   0,   0,   0,   0,   0,   0,   0,   0,   0,   0,  91,   2,  -8,  -6, 1008, 965, 16517,  91,  91,  91,  91, -165, -14, -541, 51,   0,   0,   0,   0
 28, 60259,   0,   0,   0,   0,   0, -99,   0,   0,   0,   0,   0,   0,   0,   0,   0,   0,   0,   0,  91,   2,  -2,  -6, 1096, 932, 16435,  91,  91,  91,  91, -171, -18, -536, 48,   0,   0,   0,   0
 29, 62435,   0,   0,   0,   0,   0, -99,   0,   0,   0,   0,   0,   0,   0,   0,   0,   0,   0,   0,  91,   7,  -5,  -1, 1083, 944, 16564,  91,  91,  91,  91, -171, -18, -536, 77,   0,   0,   0,   0
 30, 64782,   0,   0,   0,   0,   0, -99,   0,   0,   0,   0,   0,   0,   0,   0,   0,   0,   0,   0,  91,   5,   0,   3, 1107, 928, 16533,  91,  91,  91,  91, -163, -18, -544, 95,   0,   0,   0,   0
 31, 66954,   0,   0,   0,   0,   0, -99,   0,   0,   0,   0,   0,   0,   0,   0,   0,   0,   0,   0,  91,   4,   4,  10, 1033, 869, 16560,  91,  91,  91,  91, -163, -18, -544, 117,   0,   0,   0,   0
 32, 69127,   0,   0,   0,   0,   0, -99,   0,   0,   0,   0,   0,   0,   0,   0,   0,   0,   0,   0,  91,   2, -11,  -4, 1068, 913, 16564,  91,  91,  91,  91, -165, -15, -556, 136,   0,   0,   0,   0
 33, 71367,   0,   0,   0,   0,   0, -99,   0,   0,   0,   0,   0,   0,   0,   0,   0,   0,   0,   0,  91,  12,   2,   1, 1133, 1039, 16533,  91,  91,  91,  91, -165, -15, -556, 144,   0,   0,   0,   0
 34, 73471,   0,   0,   0,   0,   0, -99,   0,   0,   0,   0,   0,   0,   0,   0,   0,   0,   0,   0,  91,   0,  -6,   9, 1135, 924, 16532,  91,  91,  91,  91, -169, -16, -547, 151,   0,   0,   0,   0
 35, 75645,   0,   0,   0,   0,   0, -99,   0,   0,   0,   0,   0,   0,   0,   0,   0,   0,   0,   0,  91,   7,   9,  -1, 949, 882, 16564,  91,  91,  91,  91, -169, -16, -547, 166,   0,   0,   0,   0
 36, 77819,   0,   0,   0,   0,   0, -99,   0,   0,   0,   0,   0,   0,   0,   0,   0,   0,   0,   0,  91,  11,   2,   0, 1090, 976, 16657,  91,  91,  91,  91, -169, -16, -547, 201,   0,   0,   0,   0
 37, 80166,   0,   0,   0,   0,   0, -99,   0,   0,   0,   0,   0,   0,   0,   0,   0,   0,   0,   0,  91,   5,   0,   2, 1047, 996, 16432,  91,  91,  91,  91, -169, -16, -547, 174,   0,   0,   0,   0
 38, 82338,   0,   0,   0,   0,   0, -99,   0,   0,   0,   0,   0,   0,   0,   0,   0,   0,   0,   0,  91,  12,   2,  -2, 1161, 1039, 16618,  91,  91,  91,  91, -169, -16, -547, 198,   0,   0,   0,   0
 39, 84512,   0,   0,   0,   0,   0, -100,   0,   0,   0,   0,   0,   0,   0,   0,   0,   0,   0,   0,  91,  -1,  18,   9, 1110, 1028, 16544,  91,  91,  91,  91, -157, -20, -546, 199,   0,   0,   0,   0
 40, 86748,   0,   0,   0,   0,   0, -99,   0,   0,   0,   0,   0,   0,   0,   0,   0,   0,   0,   0,  91,   1, -11,  -1, 1026, 1061, 16568,  91,  91,  91,  91, -157, -20, -546, 207,   0,   0,   0,   0
 41, 88854,   0,   0,   0,   0,   0, -99,   0,   0,   0,   0,   0,   0,   0,   0,   0,   0,   0,   0,  91,  -5,   8,   0, 1039, 1056, 16459,  91,  91,  91,  91, -170, -17, -551, 186,   0,   0,   0,   0
 42, 91029,   0,   0,   0,   0,   0, -100,   0,   0,   0,   0,   0,   0,   0,   0,   0,   0,   0,   0,  91,   8,  -3,   8, 1049, 1156, 16552,  91,  91,  91,  91, -170, -17, -551, 192,   0,   0,   0,   0
 43, 93200,   0,   0,   0,   0,   0, -99,   0,   0,   0,   0,   0,   0,   0,   0,   0,   0,   0,   0,  91,  -1,  11,  -7, 1042, 1060, 16494,  91,  91,  91,  91, -164, -21, -553, 183,   0,   0,   0,   0
 44, 95581,   0,   0,   0,   0,   0, -99,   0,   0,   0,   0,   0,   0,   0,   0,   0,   0,   0,   0,  91,  -7,  10,  -2, 1042, 1057, 16537,  91,  91,  91,  91, -164, -21, -553, 185,   0,   0,   0,   0
 45, 97720,   0,   0,   0,   0,   0, -99,   0,   0,   0,   0,   0,   0,   0,   0,   0,   0,   0,   0,  91, -18,  -6,   0, 1079, 992, 16537,  91,  91,  91,  91, -170, -16, -548, 187,   0,   0,   0,   0
 46, 99893,   0,   0,   0,   0,   0, -99,   0,   0,   0,   0,   0,   0,   0,   0,   0,   0,   0,   0,  91,  -6,  -2,   0, 1111, 1020, 16404,  91,  91,  91,  91, -170, -16, -548, 155,   0,   0,   0,   0
 47, 102132,   0,   0,   0,   0,   0, -99,   0,   0,   0,   0,   0,   0,   0,   0,   0,   0,   0,   0,  91,  -9,  14,   0, 1118, 1067, 16412,  91,  91,  91,  91, -162, -18, -551, 130,   0,   0,   0,   0
 48, 104237,   0,   0,   0,   0,   0, -99,   0,   0,   0,   0,   0,   0,   0,   0,   0,   0,   0,   0,  91,  -1,   2,  -3, 952, 990, 16452,  91,  91,  91,  91, -162, -18, -551, 120,   0,   0,   0,   0
 49, 106411,   0,   0,   0,   0,   0, -99,   0,   0,   0,   0,   0,   0,   0,   0,   0,   0,   0,   0,  91, -18,   0,  -1, 1091, 956, 16587,  91,  91,  91,  91, -165, -18, -553, 144,   0,   0,   0,   0
 50, 108585,   0,   0,   0,   0,   0, -99,   0,   0,   0,   0,   0,   0,   0,   0,   0,   0,   0,   0,  91,  -3,   4,   2, 1021, 937, 16342,  91,  91,  91,  91, -165, -18, -553, 104,   0,   0,   0,   0
 51, 110929,   0,   0,   0,   0,   0, -99,   0,   0,   0,   0,   0,   0,   0,   0,   0,   0,   0,   0,  91, -12,  -6,   8, 1095, 1000, 16365,  91,  91,  91,  91, -165, -10, -565, 75,   0,   0,   0,   0
 52, 113101,   0,   0,   0,   0,   0, -99,   0,   0,   0,   0,   0,   0,   0,   0,   0,   0,   0,   0,  91,  -9,   3,   0, 1099, 944, 16529,  91,  91,  91,  91, -165, -10, -565, 92,   0,   0,   0,   0
 53, 115278,   0,   0,   0,   0,   0, -100,   0,   0,   0,   0,   0,   0,   0,   0,   0,   0,   0,   0,  91,  -4,   6,  15, 1060, 952, 16424,  91,  91,  91,  91, -165, -10, -565, 80,   0,   0,   0,   0
 54, 117521,   0,   0,   0,   0,   0, -99,   0,   0,   0,   0,   0,   0,   0,   0,   0,   0,   0,   0,  91,  -2,  16,   0, 1123, 987, 16354,  91,  91,  91,  91, -163, -23, -546, 51,   0,   0,   0,   0
 55, 119629,   0,   0,   0,   0,   0, -99,   0,   0,   0,   0,   0,   0,   0,   0,   0,   0,   0,   0,  91, -15,   4, -14, 1084, 944, 16455,  91,  91,  91,  91, -163, -23, -546, 53,   0,   0,   0,   0
 56, 121795,   0,   0,   0,   0,   0, -99,   0,   0,   0,   0,   0,   0,   0,   0,   0,   0,   0,   0,  91,  -1,   0,  12, 1068, 940, 16346,  91,  91,  91,  91, -154, -21, -567, 27,   0,   0,   0,   0
 57, 123969,   0,   0,   0,   0,   0, -100,   0,   0,   0,   0,   0,   0,   0,   0,   0,   0,   0,   0,  91,   3,   2,  10, 969, 938, 16370,  91,  91,  91,  91, -154, -21, -567, 12,   0,   0,   0,   0
 58, 126346,   0,   0,   0,   0,   0, -99,   0,   0,   0,   0,   0,   0,   0,   0,   0,   0,   0,   0,  91, -12,   1,   0, 1073, 864, 16416,  91,  91,  91,  91, -168, -18, -555, 10,   0,   0,   0,   0
 59, 128487,   0,   0,   0,   0,   0, -99,   0,   0,   0,   0,   0,   0,   0,   0,   0,   0,   0,   0,  91,   2,   2,  -2, 1095, 908, 16560,  91,  91,  91,  91, -168, -18, -555, 45,   0,   0,   0,   0
 60, 130692,   0,   0,   0,   0,   0, -100,   0,   0,   0,   0,   0,   0,   0,   0,   0,   0,   0,   0,  91,  -8,   4,  12, 1108, 840, 16490,  91,  91,  91,  91, -157, -12, -548, 57,   0,   0,   0,   0
 61, 132896,   0,   0,   0,   0,   0, -99,   0,   0,   0,   0,   0,   0,   0,   0,   0,   0,   0,   0,  91,   3,   8, -10, 973, 922, 16467,  91,  91,  91,  91, -157, -12, -548, 62,   0,   0,   0,   0
 62, 135003,   0,   0,   0,   0,   0, -99,   0,   0,   0,   0,   0,   0,   0,   0,   0,   0,   0,   0,  91,  -9,   4,   0, 1105, 808, 16517,  91,  91,  91,  91, -167, -20, -564, 78,   0,   0,   0,   0
 63, 137176,   0,   0,   0,   0,   0, -99,   0,   0,   0,   0,   0,   0,   0,   0,   0,   0,   0,   0,  91,   8, -11, -11, 1033, 901, 16494,  91,  91,  91,  91, -167, -20, -564, 86,   0,   0,   0,   0
 64, 139350,   0,   0,   0,   0,   0, -99,   0,   0,   0,   0,   0,   0,   0,   0,   0,   0,   0,   0,  91,  13,   4,   2, 1020, 1009, 16401,  91,  91,  91,  91, -172, -19, -529, 69,   0,   0,   0,   0
 65, 141695,   0,   0,   0,   0,   0, -99,   0,   0,   0,   0,   0,   0,   0,   0,   0,   0,   0,   0,  91,  -9,   3,   2, 964, 938, 16658,  91,  91,  91,  91, -172, -19, -529, 121,   0,   0,   0,   0
 66, 143868,   0,   0,   0,   0,   0, -99,   0,   0,   0,   0,   0,   0,   0,   0,   0,   0,   0,   0,  91,   0,  -2,  -5, 1061, 837, 16587,  91,  91,  91,  91, -169, -18, -549, 146,   0,   0,   0,   0
 67, 146041,   0,   0,   0,   0,   0, -99,   0,   0,   0,   0,   0,   0,   0,   0,   0,   0,   0,   0,  91,   6,  -2,  -3, 1027, 993, 16498,  91,  91,  91,  91, -169, -18, -549, 145,   0,   0,   0,   0
 68, 148280,   0,   0,   0,   0,   0, -99,   0,   0,   0,   0,   0,   0,   0,   0,   0,   0,   0,   0,  91,  -2,   0,   9, 1066, 1048, 16615,  91,  91,  91,  91, -171, -24, -540, 173,   0,   0,   0,   0
 69, 150389,   0,   0,   0,   0,   0, -99,   0,   0,   0,   0,   0,   0,   0,   0,   0,   0,   0,   0,  91,  14,   2, -10, 1068, 928, 16478,  91,  91,  91,  91, -171, -24, -540, 162,   0,   0,   0,   0
 70, 152562,   0,   0,   0,   0,   0, -99,   0,   0,   0,   0,   0,   0,   0,   0,   0,   0,   0,   0,  91,  10,   0,  -8, 1056, 953, 16486,  91,  91,  91,  91, -160, -19, -542, 156,   0,   0,   0,   0
 71, 154734,   0,   0,   0,   0,   0, -99,   0,   0,   0,   0,   0,   0,   0,   0,   0,   0,   0,   0,  91,  11,   6,  -8, 1131, 968, 16482,  91,  91,  91,  91, -160, -19, -542, 148,   0,   0,   0,   0
 72, 157083,   0,   0,   0,   0,   0, -99,   0,   0,   0,   0,   0,   0,   0,   0,   0,   0,   0,   0,  91,   6,   4,  10, 1123, 932, 16606,  91,  91,  91,  91, -160, -19, -542, 174,   0,   0,   0,   0
 73, 159253,   0,   0,   0,   0,   0, -99,   0,   0,   0,   0,   0,   0,   0,   0,   0,   0,   0,   0,  91,   6,  -4,   1, 1068, 976, 16397,  91,  91,  91,  91, -163, -15, -554, 142,   0,   0,   0,   0
 74, 161429,   0,   0,   0,   0,   0, -99,   0,   0,   0,   0,   0,   0,   0,   0,   0,   0,   0,   0,  91,   4,   5,   6, 1050, 1040, 16548,  91,  91,  91,  91, -163, -15, -554, 154,   0,   0,   0,   0
 75, 163666,   0,   0,   0,   0,   0, -99,   0,   0,   0,   0,   0,   0,   0,   0,   0,   0,   0,   0,  91,   5,   1, -11, 1052, 893, 16622,  91,  91,  91,  91, -180, -15, -543, 183,   0,   0,   0,   0
 76, 165772,   0,   0,   0,   0,   0, -99,   0,   0,   0,   0,   0,   0,   0,   0,   0,   0,   0,   0,  91,  13,   6,   8, 1056, 941, 16463,  91,  91,  91,  91, -180, -15, -543, 168,   0,   0,   0,   0
 77, 167945,   0,   0,   0,   0,   0, -99,   0,   0,   0,   0,   0,   0,   0,   0,   0,   0,   0,   0,  91,   4,   0,   6, 1166, 1003, 16521,  91,  91,  91,  91, -171, -15, -545, 168,   0,   0,   0,   0
 78, 170118,   0,   0,   0,   0,   0, -99,   0,   0,   0,   0,   0,   0,   0,   0,   0,   0,   0,   0,  91,   0,  11,  -7, 1103, 1024, 16393,  91,  91,  91,  91, -171, -15, -545, 136,   0,   0,   0,   0
 79, 172465,   0,   0,   0,   0,   0, -99,   0,   0,   0,   0,   0,   0,   0,   0,   0,   0,   0,   0,  91,   5,  -4,   2, 1054, 1080, 16447,  91,  91,  91,  91, -164, -15, -542, 124,   0,   0,   0,   0
 80, 174638,   0,   0,   0,   0,   0, -99,   0,   0,   0,   0,   0,   0,   0,   0,   0,   0,   0,   0,  91,  14,   0,   7, 1173, 1087, 16490,  91,  91,  91,  91, -164, -15, -542, 123,   0,   0,   0,   0
 81, 176813,   0,   0,   0,   0,   0, -100,   0,   0,   0,   0,   0,   0,   0,   0,   0,   0,   0,   0,  91,   0,   0,  15, 1043, 1025, 16525,  91,  91,  91,  91, -165, -16, -529, 132,   0,   0,   0,   0
 82, 179049,   0,   0,   0,   0,   0, -99,   0,   0,   0,   0,   0,   0,   0,   0,   0,   0,   0,   0,  91,  -7,  -7, -11, 1082, 1092, 16455,  91,  91,  91,  91, -165, -16, -529, 122,   0,   0,   0,   0
 83, 181153,   0,   0,   0,   0,   0, -99,   0,   0,   0,   0,   0,   0,   0,   0,   0,   0,   0,   0,  91, -16,   4, -11, 1103, 1028, 16404,  91,  91,  91,  91, -164, -19, -535, 101,   0,   0,   0,   0
 84, 183329,   0,   0,   0,   0,   0, -99,   0,   0,   0,   0,   0,   0,   0,   0,   0,   0,   0,   0,  91,   1,  11,   5, 1038, 1064, 16475,  91,  91,  91,  91, -164, -19, -535, 101,   0,   0,   0,   0
 85, 185500,   0,   0,   0,   0,   0, -99,   0,   0,   0,   0,   0,   0,   0,   0,   0,   0,   0,   0,  91,  -8,  -1,  -5, 1166, 991, 16458,  91,  91,  91,  91, -176, -17, -546, 96,   0,   0,   0,   0
 86, 187849,   0,   0,   0,   0,   0, -99,   0,   0,   0,   0,   0,   0,   0,   0,   0,   0,   0,   0,  91, -14,  -6,   9, 1118, 1024, 16466,  91,  91,  91,  91, -176, -17, -546, 94,   0,   0,   0,   0
 87, 190021,   0,   0,   0,   0,   0, -99,   0,   0,   0,   0,   0,   0,   0,   0,   0,   0,   0,   0,  91, -11,  -9,   2, 1096, 912, 16365,  91,  91,  91,  91, -164, -17, -554, 67,   0,   0,   0,   0
 88, 192195,   0,   0,   0,   0,   0, -99,   0,   0,   0,   0,   0,   0,   0,   0,   0,   0,   0,   0,  91,  -9,  11,   5, 1023, 1033, 16506,  91,  91,  91,  91, -164, -17, -554, 80,   0,   0,   0,   0
 89, 194433,   0,   0,   0,   0,   0, -100,   0,   0,   0,   0,   0,   0,   0,   0,   0,   0,   0,   0,  91,  -2,   6,   5, 1001, 945, 16416,  91,  91,  91,  91, -164, -17, -554, 69,   0,   0,   0,   0
 90, 196539,   0,   0,   0,   0,   0, -100,   0,   0,   0,   0,   0,   0,   0,   0,   0,   0,   0,   0,  91,  -4,  -4,   3, 1107, 948, 16501,  91,  91,  91,  91, -164, -17, -554, 80,   0,   0,   0,   0
 91, 198711,   0,   0,   0,   0,   0, -99,   0,   0,   0,   0,   0,   0,   0,   0,   0,   0,   0,   0,  91,  -5,   7,   0, 1123, 912, 16482,  91,  91,  91,  91, -164, -17, -554, 85,   0,   0,   0,   0
 92, 200786,   0,   0,   0,   0,   0,   0,   0,   0,   0,   0,   0,   0,   0,   0,   0,   0,   0,   0,   0,  -4,  -8,   3, 1040, 965, 16513,  48,  48,  48,  48, -171, -16, -536, 97,   0,   0,   0,   0
 93, 203128,   0,   0,   0,   0,   0,   0,   0,   0,   0,   0,   0,   0,   0,   0,   0,   0,   0,   0,   0,  -8,   6,   0, 1162, 967, 16466,  48,  48,  48,  48, -171, -16, -536, 95,   0,   0,   0,   0
 94, 205299,   0,   0,   0,   0,   0,   0,   0,   0,   0,   0,   0,   0,   0,   0,   0,   0,   0,   0,   0, -10,  -2,   4, 1016, 993, 16381,  48,  48,  48,  48, -161, -12, -541, 72,   0,   0,   0,   0
 95, 207472,   0,   0,   0,   0,   0,   0,   0,   0,   0,   0,   0,   0,   0,   0,   0,   0,   0,   0,   0,  -8,   5,  -5, 1021, 849, 16467,  48,  48,  48,  48, -161, -12, -541, 75,   0,   0,   0,   0
 96, 209717,   0,   0,   0,   0,   0,   0,   0,   0,   0,   0,   0,   0,   0,   0,   0,   0,   0,   0,   0, -15,   2,   5, 1042, 797, 16416,  48,  48,  48,  48, -171, -17, -543, 64,   0,   0,   0,   0
 97, 211818,   0,   0,   0,   0,   0,   0,   0,   0,   0,   0,   0,   0,   0,   0,   0,   0,   0,   0,   0,  -8,   7,   1, 1154, 1007, 16494,  48,  48,  48,  48, -171, -17, -543, 74,   0,   0,   0,   0
 98, 213991,   0,   0,   0,   0,   0,   0,   0,   0,   0,   0,   0,   0,   0,   0,   0,   0,   0,   0,   0,  -4,  -3,   4, 1092, 896, 16400,  48,  48,  48,  48, -166, -20, -557, 59,   0,   0,   0,   0
 99, 216174,   0,   0,   0,   0,   0,   0,   0,   0,   0,   0,   0,   0,   0,   0,   0,   0,   0,   0,   0,  -9,   6, -11, 1053, 893, 16315,  48,  48,  48,  48, -166, -20, -557, 25,   0,   0,   0,   0
100, 218506,   0,   0,   0,   0,   0,   0,   0,   0,   0,   0,   0,   0,   0,   0,   0,   0,   0,   0,   0,   2,   2,  -6, 1108, 892, 16552,  48,  48,  48,  48, -161, -19, -553, 56,   0,   0,   0,   0
101, 220678,   0,   0,   0,   0,   0,   0,   0,   0,   0,   0,   0,   0,   0,   0,   0,   0,   0,   0,   0,  -5,  -5,  -6, 1084, 908, 16544,  48,  48,  48,  48, -161, -19, -553, 80,   0,   0,   0,   0
102, 222852,   0,   0,   0,   0,   0,   0,   0,   0,   0,   0,   0,   0,   0,   0,   0,   0,   0,   0,   0,  -6,  -5,  -2, 1097, 784, 16474,  48,  48,  48,  48, -171, -14, -548, 83,   0,   0,   0,   0
103, 225100,   0,   0,   0,   0,   0,   0,   0,   0,   0,   0,   0,   0,   0,   0,   0,   0,   0,   0,   0,   1,  -1,  -4, 1103, 924, 16505,  48,  48,  48,  48, -171, -14, -548, 93,   0,   0,   0,   0
104, 227035,   0,   0,   0,   0,   0,   0,   0,   0,   0,   0,   0,   0,   0,   0,   0,   0,   0,   0,   0,  -4,   1,   3, 1112, 900, 16424,  48,  48,  48,  48, -171, -14, -548, 81,   0,   0,   0,   0
105, 229208,   0,   0,   0,   0,   0,   0,   0,   0,   0,   0,   0,   0,   0,   0,   0,   0,   0,   0,   0,   8,   8,   0, 1075, 980, 16424,  48,  48,  48,  48, -171, -14, -548, 71,   0,   0,   0,   0
106, 231381,   0,   0,   0,   0,   0,   0,   0,   0,   0,   0,   0,   0,   0,   0,   0,   0,   0,   0,   0,  11,   8,   4, 1122, 1023, 16439,  48,  48,  48,  48, -171, -14, -548, 67,   0,   0,   0,   0
107, 233554,   0,   0,   0,   0,   0,   0,   0,   0,   0,   0,   0,   0,   0,   0,   0,   0,   0,   0,   0,  -2,  -9,   5, 1009, 889, 16591,  48,  48,  48,  48, -156, -24, -565, 102,   0,   0,   0,   0
108, 235896,   0,   0,   0,   0,   0,   0,   0,   0,   0,   0,   0,   0,   0,   0,   0,   0,   0,   0,   0,  -4,  -2,   0, 1027, 1013, 16603,  48,  48,  48,  48, -156, -24, -565, 135,   0,   0,   0,   0
109, 238067,   0,   0,   0,   0,   0,   0,   0,   0,   0,   0,   0,   0,   0,   0,   0,   0,   0,   0,   0,   3,   0,   0, 1001, 865, 16525,  48,  48,  48,  48, -163, -13, -573, 143,   0,   0,   0,   0
110, 240240,   0,   0,   0,   0,   0,   0,   0,   0,   0,   0,   0,   0,   0,   0,   0,   0,   0,   0,   0,  10,  -1,  -1, 1060, 960, 16443,  48,  48,  48,  48, -163, -13, -573, 128,   0,   0,   0,   0
111, 242415,   0,   0,   0,   0,   0,   0,   0,   0,   0,   0,   0,   0,   0,   0,   0,   0,   0,   0,   0,   0, -12,   0, 1080, 865, 16649,  48,  48,  48,  48, -171, -19, -536, 168,   0,   0,   0,   0
112, 244517,   0,   0,   0,   0,   0,   0,   0,   0,   0,   0,   0,   0,   0,   0,   0,   0,   0,   0,   0,   4,  -6,  -5, 1083, 968, 16552,  48,  48,  48,  48, -171, -19, -536, 178,   0,   0,   0,   0
113, 246690,   0,   0,   0,   0,   0,   0,   0,   0,   0,   0,   0,   0,   0,   0,   0,   0,   0,   0,   0,   5,  -2,   9, 1043, 1029, 16490,  48,  48,  48,  48, -169, -15, -541, 170,   0,   0,   0,   0
114, 248863,   0,   0,   0,   0,   0,   0,   0,   0,   0,   0,   0,   0,   0,   0,   0,   0,   0,   0,   0,   7,   6,  -1, 1095, 976, 16447,  48,  48,  48,  48, -169, -15, -541, 152,   0,   0,   0,   0
115, 251205,   0,   0,   0,   0,   0,   0,   0,   0,   0,   0,   0,   0,   0,   0,   0,   0,   0,   0,   0,   0,  -2,  12, 1185, 1051, 16474,  48,  48,  48,  48, -162, -26, -540, 144,   0,   0,   0,   0
116, 253377,   0,   0,   0,   0,   0,   0,   0,   0,   0,   0,   0,   0,   0,   0,   0,   0,   0,   0,   0,   6,   1,   3, 1073, 1132, 16533,  48,  48,  48,  48, -162, -26, -540, 152,   0,   0,   0,   0
117, 255551,   0,   0,   0,   0,   0,   0,   0,   0,   0,   0,   0,   0,   0,   0,   0,   0,   0,   0,   0,  -1,   3,  -5, 1070, 1060, 16482,  48,  48,  48,  48, -169, -18, -540, 146,   0,   0,   0,   0
118, 257791,   0,   0,   0,   0,   0,   0,   0,   0,   0,   0,   0,   0,   0,   0,   0,   0,   0,   0,   0,   3,  -4,  18, 1139, 1003, 16350,  48,  48,  48,  48, -169, -18, -540, 108,   0,   0,   0,   0
119, 259890,   0,   0,   0,   0,   0,   0,   0,   0,   0,   0,   0,   0,   0,   0,   0,   0,   0,   0,   0,   5,  -3, -11, 1178, 975, 16493,  48,  48,  48,  48, -162, -12, -557, 111,   0,   0,   0,   0
120, 262063,   0,   0,   0,   0,   0,   0,   0,   0,   0,   0,   0,   0,   0,   0,   0,   0,   0,   0,   0,   0,   0, -11, 1142, 991, 16560,  48,  48,  48,  48, -162, -12, -557, 130,   0,   0,   0,   0
121, 264236,   0,   0,   0,   0,   0,   0,   0,   0,   0,   0,   0,   0,   0,   0,   0,   0,   0,   0,   0,  -6,  -1,  10, 1134, 948, 16564,  48,  48,  48,  48, -162, -12, -557, 148,   0,   0,   0,   0
122, 266580,   0,   0,   0,   0,   0,   0,   0,   0,   0,   0,   0,   0,   0,   0,   0,   0,   0,   0,   0,   6,   8,  -9, 1016, 969, 16436,  48,  48,  48,  48, -167, -15, -553, 132,   0,   0,   0,   0
123, 268752,   0,   0,   0,   0,   0,   0,   0,   0,   0,   0,   0,   0,   0,   0,   0,   0,   0,   0,   0,  -8,  -4,  -2, 1118, 992, 16536,  48,  48,  48,  48, -167, -15, -553, 142,   0,   0,   0,   0
124, 270923,   0,   0,   0,   0,   0,   0,   0,   0,   0,   0,   0,   0,   0,   0,   0,   0,   0,   0,   0,   0,   0,   0, 1106, 1036, 16408,  48,  48,  48,  48, -170, -11, -550, 119,   0,   0,   0,   0
125, 273172,   0,   0,   0,   0,   0,   0,   0,   0,   0,   0,   0,   0,   0,   0,   0,   0,   0,   0,   0,  -5,  -6,   4, 1166, 951, 16478,  48,  48,  48,  48, -170, -11, -550, 117,   0,   0,   0,   0
126, 275107,   0,   0,   0,   0,   0,   0,   0,   0,   0,   0,   0,   0,   0,   0,   0,   0,   0,   0,   0,  -7,   3,  -2, 1042, 1081, 16591,  48,  48,  48,  48, -169, -15, -555, 144,   0,   0,   0,   0
127, 277280,   0,   0,   0,   0,   0,   0,   0,   0,   0,   0,   0,   0,   0,   0,   0,   0,   0,   0,   0,  -3,  -8,   0, 963, 1066, 16561,  48,  48,  48,  48, -169, -15, -555, 161,   0,   0,   0,   0
128, 279453,   0,   0,   0,   0,   0,   0,   0,   0,   0,   0,   0,   0,   0,   0,   0,   0,   0,   0,   0,  -7,  -4,  16, 1040, 1032, 16323,  48,  48,  48,  48, -174, -23, -548, 113,   0,   0,   0,   0
129, 281626,   0,   0,   0,   0,   0,   0,   0,   0,   0,   0,   0,   0,   0,   0,   0,   0,   0,   0,   0,  -4,  15,  -6, 1034, 1093, 16564,  48,  48,  48,  48, -174, -23, -548, 135,   0,   0,   0,   0
130, 283968,   0,   0,   0,   0,   0,   0,   0,   0,   0,   0,   0,   0,   0,   0,   0,   0,   0,   0,   0,  -4,   1,  -5, 1034, 1049, 16533,  48,  48,  48,  48, -155, -16, -542, 145,   0,   0,   0,   0
131, 286140,   0,   0,   0,   0,   0,   0,   0,   0,   0,   0,   0,   0,   0,   0,   0,   0,   0,   0,   0, -17,   6,   0, 1072, 940, 16502,  48,  48,  48,  48, -155, -16, -542, 145,   0,   0,   0,   0
132, 288314,   0,   0,   0,   0,   0,   0,   0,   0,   0,   0,   0,   0,   0,   0,   0,   0,   0,   0,   0,  -2,   1,  12, 1073, 880, 16443,  48,  48,  48,  48, -162, -15, -545, 131,   0,   0,   0,   0
133, 290509,   0,   0,   0,   0,   0,   0,   0,   0,   0,   0,   0,   0,   0,   0,   0,   0,   0,   0,   0,  -2,   2,   7, 1056, 949, 16478,  48,  48,  48,  48, -162, -15, -545, 127,   0,   0,   0,   0
134, 292609,   0,   0,   0,   0,   0,   0,   0,   0,   0,   0,   0,   0,   0,   0,   0,   0,   0,   0,   0,  -9,   0,   9, 1008, 985, 16490,  48,  48,  48,  48, -149, -12, -549, 128,   0,   0,   0,   0
135, 294783,   0,   0,   0,   0,   0,   0,   0,   0,   0,   0,   0,   0,   0,   0,   0,   0,   0,   0,   0,   7,  -1,  -4, 1123, 952, 16532,  48,  48,  48,  48, -149, -12, -549, 138,   0,   0,   0,   0
136, 296956,   0,   0,   0,   0,   0,   0,   0,   0,   0,   0,   0,   0,   0,   0,   0,   0,   0,   0,   0,  -1,  12,  14, 993, 890, 16517,  48,  48,  48,  48, -149, -12, -549, 144,   0,   0,   0,   0
137, 299300,   0,   0,   0,   0,   0,   0,   0,   0,   0,   0,   0,   0,   0,   0,   0,   0,   0,   0,   0,  -2,  -1,  -2, 1061, 865, 16490,  48,  48,  48,  48, -156, -18, -552, 142,   0,   0,   0,   0
138, 301472,   0,   0,   0,   0,   0,   0,   0,   0,   0,   0,   0,   0,   0,   0,   0,   0,   0,   0,   0,   3,   0,   8, 1023, 1053, 16498,  48,  48,  48,  48, -156, -18, -552, 142,   0,   0,   0,   0
139, 303645,   0,   0,   0,   0,   0,   0,   0,   0,   0,   0,   0,   0,   0,   0,   0,   0,   0,   0,   0,  -7,   1,   9, 1067, 936, 16537,  48,  48,  48,  48, -159, -18, -548, 152,   0,   0,   0,   0
140, 305864,   0,   0,   0,   0,   0,   0,   0,   0,   0,   0,   0,   0,   0,   0,   0,   0,   0,   0,   0,   7,   4,   0, 1024, 929, 16634,  48,  48,  48,  48, -159, -18, -548, 185,   0,   0,   0,   0
141, 307965,   0,   0,   0,   0,   0,   0,   0,   0,   0,   0,   0,   0,   0,   0,   0,   0,   0,   0,   0,   2,  -7,   2, 1040, 889, 16572,  48,  48,  48,  48, -165, -24, -548, 197,   0,   0,   0,   0
142, 310153,   0,   0,   0,   0,   0,   0,   0,   0,   0,   0,   0,   0,   0,   0,   0,   0,   0,   0,   0,  -5,   3, -12, 1068, 932, 16447,  48,  48,  48,  48, -165, -24, -548, 176,   0,   0,   0,   0
143, 312311,   0,   0,   0,   0,   0,   0,   0,   0,   0,   0,   0,   0,   0,   0,   0,   0,   0,   0,   0,  12,  -1,   6, 1093, 848, 16276,  48,  48,  48,  48, -156, -23, -533, 114,   0,   0,   0,   0
144, 314654,   0,   0,   0,   0,   0,   0,   0,   0,   0,   0,   0,   0,   0,   0,   0,   0,   0,   0,   0,  12,  -2, -13, 1025, 905, 16478,  48,  48,  48,  48, -156, -23, -533, 114,   0,   0,   0,   0
145, 316826,   0,   0,   0,   0,   0,   0,   0,   0,   0,   0,   0,   0,   0,   0,   0,   0,   0,   0,   0,   1,  -3,  -9, 1087, 980, 16451,  48,  48,  48,  48, -170, -18, -547, 106,   0,   0,   0,   0
146, 318999,   0,   0,   0,   0,   0,   0,   0,   0,   0,   0,   0,   0,   0,   0,   0,   0,   0,   0,   0,  -1, -10,  -8, 1017, 897, 16529,  48,  48,  48,  48, -170, -18, -547, 120,   0,   0,   0,   0
147, 321248,   0,   0,   0,   0,   0,   0,   0,   0,   0,   0,   0,   0,   0,   0,   0,   0,   0,   0,   0,  10,  -6,   9, 1103, 1012, 16439,  48,  48,  48,  48, -160, -16, -557, 108,   0,   0,   0,   0
148, 323204,   0,   0,   0,   0,   0,   0,   0,   0,   0,   0,   0,   0,   0,   0,   0,   0,   0,   0,   0,   7,  -5,   8, 1154, 1019, 16509,  48,  48,  48,  48, -160, -16, -557, 116,   0,   0,   0,   0
149, 325376,   0,   0,   0,   0,   0,   0,   0,   0,   0,   0,   0,   0,   0,   0,   0,   0,   0,   0,   0,  11,  -1, -10, 1059, 1032, 16439,  48,  48,  48,  48, -166, -25, -550, 105,   0,   0,   0,   0
150, 327549,   0,   0,   0,   0,   0,   0,   0,   0,   0,   0,   0,   0,   0,   0,   0,   0,   0,   0,   0,   5,   1,  -5, 1118, 984, 16505,  48,  48,  48,  48, -166, -25, -550, 112,   0,   0,   0,   0
151, 329722,   0,   0,   0,   0,   0,   0,   0,   0,   0,   0,   0,   0,   0,   0,   0,   0,   0,   0,   0,  13,  -8,  -6, 1071, 1008, 16498,  48,  48,  48,  48, -174, -15, -559, 117,   0,   0,   0,   0
152, 332064,   0,   0,   0,   0,   0,   0,   0,   0,   0,   0,   0,   0,   0,   0,   0,   0,   0,   0,   0,  10,  -8, -17, 1099, 964, 16556,  48,  48,  48,  48, -174, -15, -559, 135,   0,   0,   0,   0
153, 334237,   0,   0,   0,   0,   0,   0,   0,   0,   0,   0,   0,   0,   0,   0,   0,   0,   0,   0,   0,  10,   9, -10, 1054, 1024, 16580,  48,  48,  48,  48, -174, -15, -559, 157,   0,   0,   0,   0
154, 336410,   0,   0,   0,   0,   0,   0,   0,   0,   0,   0,   0,   0,   0,   0,   0,   0,   0,   0,   0,   4,   0,   5, 1095, 916, 16568,  48,  48,  48,  48, -171, -16, -557, 173,   0,   0,   0,   0
155, 338553,   0,   0,   0,   0,   0,   0,   0,   0,   0,   0,   0,   0,   0,   0,   0,   0,   0,   0,   0,  -3,  -4,   8, 1094, 1044, 16576,  48,  48,  48,  48, -171, -16, -557, 188,   0,   0,   0,   0
156, 340657,   0,   0,   0,   0,   0,   0,   0,   0,   0,   0,   0,   0,   0,   0,   0,   0,   0,   0,   0,   0,  -1,   2, 987, 1065, 16498,  48,  48,  48,  48, -163, -11, -571, 181,   0,   0,   0,   0
157, 342831,   0,   0,   0,   0,   0,   0,   0,   0,   0,   0,   0,   0,   0,   0,   0,   0,   0,   0,   0,   6,   2,   1, 982, 1105, 16525,  48,  48,  48,  48, -163, -11, -571, 183,   0,   0,   0,   0
158, 345005,   0,   0,   0,   0,   0,   0,   0,   0,   0,   0,   0,   0,   0,   0,   0,   0,   0,   0,   0,  -3,   0,   3, 1016, 925, 16482,  48,  48,  48,  48, -165, -15, -544, 173,   0,   0,   0,   0
159, 347348,   0,   0,   0,   0,   0,   0,   0,   0,   0,   0,   0,   0,   0,   0,   0,   0,   0,   0,   0,   5,  -5,   0, 1070, 1028, 16583,  48,  48,  48,  48, -165, -15, -544, 190,   0,   0,   0,   0
160, 349520,   0,   0,   0,   0,   0,   0,   0,   0,   0,   0,   0,   0,   0,   0,   0,   0,   0,   0,   0,  -2,  -6,  -8, 1107, 1028, 16315,  48,  48,  48,  48, -175, -17, -550, 136,   0,   0,   0,   0
161, 351692,   0,   0,   0,   0,   0,   0,   0,   0,   0,   0,   0,   0,   0,   0,   0,   0,   0,   0,   0,  -7,   6,  -9, 1133, 1067, 16455,  48,  48,  48,  48, -175, -17, -550, 126,   0,   0,   0,   0
162, 353935,   0,   0,   0,   0,   0,   0,   0,   0,   0,   0,   0,   0,   0,   0,   0,   0,   0,   0,   0,   6,  -8,   5, 917, 966, 16498,  48,  48,  48,  48, -160, -13, -557, 130,   0,   0,   0,   0
163, 356037,   0,   0,   0,   0,   0,   0,   0,   0,   0,   0,   0,   0,   0,   0,   0,   0,   0,   0,   0,  -4, -11,  11, 1031, 1045, 16389,  48,  48,  48,  48, -160, -13, -557, 105,   0,   0,   0,   0
164, 358209,   0,   0,   0,   0,   0,   0,   0,   0,   0,   0,   0,   0,   0,   0,   0,   0,   0,   0,   0,  -2,  17,   6, 1097, 1092, 16525,  48,  48,  48,  48, -173, -11, -548, 117,   0,   0,   0,   0
165, 360382,   0,   0,   0,   0,   0,   0,   0,   0,   0,   0,   0,   0,   0,   0,   0,   0,   0,   0,   0,  -4,  15,   0, 1106, 992, 16536,  48,  48,  48,  48, -173, -11, -548, 131,   0,   0,   0,   0
166, 362727,   0,   0,   0,   0,   0,   0,   0,   0,   0,   0,   0,   0,   0,   0,   0,   0,   0,   0,   0, -14,   3, -21, 1076, 948, 16451,  48,  48,  48,  48, -166, -20, -555, 121,   0,   0,   0,   0
167, 364898,   0,   0,   0,   0,   0,   0,   0,   0,   0,   0,   0,   0,   0,   0,   0,   0,   0,   0,   0, -12,  -1, -14, 977, 977, 16381,  48,  48,  48,  48, -166, -20, -555, 95,   0,   0,   0,   0
168, 367072,   0,   0,   0,   0,   0,   0,   0,   0,   0,   0,   0,   0,   0,   0,   0,   0,   0,   0,   0, -10,   6,   0, 1008, 969, 16541,  48,  48,  48,  48, -166, -20, -555, 114,   0,   0,   0,   0
169, 369320,   0,   0,   0,   0,   0,   0,   0,   0,   0,   0,   0,   0,   0,   0,   0,   0,   0,   0,   0,  -3,   0,  10, 1031, 1041, 16467,  48,  48,  48,  48, -163, -23, -552, 111,   0,   0,   0,   0
170, 371277,   0,   0,   0,   0,   0,   0,   0,   0,   0,   0,   0,   0,   0,   0,   0,   0,   0,   0,   0,   1,   6,  -6, 1015, 1049, 16420,  48,  48,  48,  48, -163, -23, -552, 97,   0,   0,   0,   0
171, 373449,   0,   0,   0,   0,   0,   0,   0,   0,   0,   0,   0,   0,   0,   0,   0,   0,   0,   0,   0, -10,  -5,  -7, 1088, 896, 16385,  48,  48,  48,  48, -168, -15, -557, 75,   0,   0,   0,   0
172, 375623,   0,   0,   0,   0,   0,   0,   0,   0,   0,   0,   0,   0,   0,   0,   0,   0,   0,   0,   0,  -5,   4,  -7, 1132, 880, 16334,  48,  48,  48,  48, -168, -15, -557, 43,   0,   0,   0,   0
173, 377795,   0,   0,   0,   0,   0,   0,   0,   0,   0,   0,   0,   0,   0,   0,   0,   0,   0,   0,   0,  -9,   0,   1, 1104, 932, 16443,  48,  48,  48,  48, -172, -21, -539, 45,   0,   0,   0,   0
174, 380137,   0,   0,   0,   0,   0,   0,   0,   0,   0,   0,   0,   0,   0,   0,   0,   0,   0,   0,   0,  -8,   0,   8, 1142, 991, 16451,  48,  48,  48,  48, -172, -21, -539, 47,   0,   0,   0,   0
175, 382310,   0,   0,   0,   0,   0,   0,   0,   0,   0,   0,   0,   0,   0,   0,   0,   0,   0,   0,   0,   1,  -4,  -5, 1060, 909, 16463,  48,  48,  48,  48, -163, -21, -546, 53,   0,   0,   0,   0
176, 384483,   0,   0,   0,   0,   0,   0,   0,   0,   0,   0,   0,   0,   0,   0,   0,   0,   0,   0,   0,   2,  -1,   0, 1034, 841, 16408,  48,  48,  48,  48, -163, -21, -546, 44,   0,   0,   0,   0
177, 386657,   0,   0,   0,   0,   0,   0,   0,   0,   0,   0,   0,   0,   0,   0,   0,   0,   0,   0,   0,  -1,  -1,  -7, 1024, 933, 16459,  48,  48,  48,  48, -166, -18, -532, 50,   0,   0,   0,   0
178, 388759,   0,   0,   0,   0,   0,   0,   0,   0,   0,   0,   0,   0,   0,   0,   0,   0,   0,   0,   0,  -2,   1,  -2, 1004, 997, 16405,  48,  48,  48,  48, -166, -18, -532, 41,   0,   0,   0,   0
179, 390933,   0,   0,   0,   0,   0,   0,   0,   0,   0,   0,   0,   0,   0,   0,   0,   0,   0,   0,   0,  12,   9, -10, 1119, 952, 16548,  48,  48,  48,  48, -170, -17, -536, 69,   0,   0,   0,   0
180, 393106,   0,   0,   0,   0,   0,   0,   0,   0,   0,   0,   0,   0,   0,   0,   0,   0,   0,   0,   0,   0,   1,   1, 1148, 872, 16478,  48,  48,  48,  48, -170, -17, -536, 75,   0,   0,   0,   0
181, 395446,   0,   0,   0,   0,   0,   0,   0,   0,   0,   0,   0,   0,   0,   0,   0,   0,   0,   0,   0,   3,  11,   1, 1096, 900, 16416,  48,  48,  48,  48, -171, -10, -546, 65,   0,   0,   0,   0
182, 397618,   0,   0,   0,   0,   0,   0,   0,   0,   0,   0,   0,   0,   0,   0,   0,   0,   0,   0,   0,   0,   3,  -1, 993, 870, 16517,  48,  48,  48,  48, -171, -10, -546, 82,   0,   0,   0,   0
183, 399791,   0,   0,   0,   0,   0,   0,   0,   0,   0,   0,   0,   0,   0,   0,   0,   0,   0,   0,   0,   8,  -5,  -1, 1102, 1020, 16494,  48,  48,  48,  48, -171, -10, -546, 90,   0,   0,   0,   0
184, 402008,   0,   0,   0,   0,   0,   0,   0,   0,   0,   0,   0,   0,   0,   0,   0,   0,   0,   0,   0,   4,  -1,   1, 1158, 1011, 16482,  48,  48,  48,  48, -171, -10, -546, 94,   0,   0,   0,   0
185, 404109,   0,   0,   0,   0,   0,   0,   0,   0,   0,   0,   0,   0,   0,   0,   0,   0,   0,   0,   0,   6,  -3,   7, 1131, 924, 16462,  48,  48,  48,  48, -171, -10, -546, 92,   0,   0,   0,   0
186, 406283,   0,   0,   0,   0,   0,   0,   0,   0,   0,   0,   0,   0,   0,   0,   0,   0,   0,   0,   0,   3, -12,  -4, 1045, 869, 16482,  48,  48,  48,  48, -161, -16, -547, 96,   0,   0,   0,   0
187, 408466,   0,   0,   0,   0,   0,   0,   0,   0,   0,   0,   0,   0,   0,   0,   0,   0,   0,   0,   0,   3, -14,   1, 1052, 889, 16521,  48,  48,  48,  48, -161, -16, -547, 110,   0,   0,   0,   0
188, 410799,   0,   0,   0,   0,   0,   0,   0,   0,   0,   0,   0,   0,   0,   0,   0,   0,   0,   0,   0,   6,   1,  -5, 1101, 1044, 16610,  48,  48,  48,  48, -169, -18, -557, 143,   0,   0,   0,   0
189, 412971,   0,   0,   0,   0,   0,   0,   0,   0,   0,   0,   0,   0,   0,   0,   0,   0,   0,   0,   0,   4,  -9,  -6, 1068, 924, 16459,  48,  48,  48,  48, -169, -18, -557, 134,   0,   0,   0,   0
190, 415144,   0,   0,   0,   0,   0,   0,   0,   0,   0,   0,   0,   0,   0,   0,   0,   0,   0,   0,   0,   5,   0,  -5, 1119, 976, 16443,  48,  48,  48,  48, -168, -18, -552, 121,   0,   0,   0,   0
191, 417392,   0,   0,   0,   0,   0,   0,   0,   0,   0,   0,   0,   0,   0,   0,   0,   0,   0,   0,   0,  11,  -7,  -2, 1071, 976, 16506,  48,  48,  48,  48, -168, -18, -552, 127,   0,   0,   0,   0
192, 419348,   0,   0,   0,   0,   0,   0,   0,   0,   0,   0,   0,   0,   0,   0,   0,   0,   0,   0,   0,   5,  11,  -3, 1149, 1055, 16501,  48,  48,  48,  48, -171, -17, -536, 130,   0,   0,   0,   0
193, 421521,   0,   0,   0,   0,   0,   0,   0,   0,   0,   0,   0,   0,   0,   0,   0,   0,   0,   0,   0,   0,   2,   2, 1174, 911, 16637,  48,  48,  48,  48, -171, -17, -536, 167,   0,   0,   0,   0
194, 423694,   0,   0,   0,   0,   0,   0,   0,   0,   0,   0,   0,   0,   0,   0,   0,   0,   0,   0,   0,   8,  18,   1, 1104, 964, 16311,  48,  48,  48,  48, -165, -20, -548, 116,   0,   0,   0,   0
195, 425867,   0,   0,   0,   0,   0,   0,   0,   0,   0,   0,   0,   0,   0,   0,   0,   0,   0,   0,   0,  -5, -19,   2, 1119, 1011, 16385,  48,  48,  48,  48, -165, -20, -548, 91,   0,   0,   0,   0
196, 428209,   0,   0,   0,   0,   0,   0,   0,   0,   0,   0,   0,   0,   0,   0,   0,   0,   0,   0,   0,   7,   6,  -4, 1158, 979, 16513,  48,  48,  48,  48, -176, -15, -538, 103,   0,   0,   0,   0
197, 430381,   0,   0,   0,   0,   0,   0,   0,   0,   0,   0,   0,   0,   0,   0,   0,   0,   0,   0,   0,   5,   9,   0, 1057, 1136, 16440,  48,  48,  48,  48, -176, -15, -538, 95,   0,   0,   0,   0
198, 432555,   0,   0,   0,   0,   0,   0,   0,   0,   0,   0,   0,   0,   0,   0,   0,   0,   0,   0,   0,  -1, -10, -17, 1024, 957, 16490,  48,  48,  48,  48, -163, -18, -561, 101,   0,   0,   0,   0
199, 434699,   0,   0,   0,   0,   0,   0,   0,   0,   0,   0,   0,   0,   0,   0,   0,   0,   0,   0,   0,   1,   9,   3, 1087, 956, 16618,  48,  48,  48,  48, -163, -18, -561, 138,   0,   0,   0,   0
200, 436805,   0,   0,   0,   0,   0,   0,   0,   0,   0,   0,   0,   0,   0,   0,   0,   0,   0,   0,   0,   0,   0,  -1, 1047, 1020, 16494,  48,  48,  48,  48, -163, -18, -561, 138,   0,   0,   0,   0
201, 438978,   0,   0,   0,   0,   0,   0,   0,   0,   0,   0,   0,   0,   0,   0,   0,   0,   0,   0,   0,  -1,   0,   6, 1153, 1099, 16373,  48,  48,  48,  48, -164, -16, -570, 107,   0,   0,   0,   0
202, 441151,   0,   0,   0,   0,   0,   0,   0,   0,   0,   0,   0,   0,   0,   0,   0,   0,   0,   0,   0,   4,   4,   3, 997, 965, 16374,  48,  48,  48,  48, -164, -16, -570, 82,   0,   0,   0,   0
203, 443492,   0,   0,   0,   0,   0,   0,   0,   0,   0,   0,   0,   0,   0,   0,   0,   0,   0,   0,   0, -10, -10,   2, 1119, 952, 16497,  48,  48,  48,  48, -173,  -9, -556, 91,   0,   0,   0,   0
204, 445664,   0,   0,   0,   0,   0,   0,   0,   0,   0,   0,   0,   0,   0,   0,   0,   0,   0,   0,   0, -19,  10, -11, 1118, 1028, 16517,  48,  48,  48,  48, -173,  -9, -556, 104,   0,   0,   0,   0
205, 447838,   0,   0,   0,   0,   0,   0,   0,   0,   0,   0,   0,   0,   0,   0,   0,   0,   0,   0,   0, -12,   3,   0, 1161, 1095, 16466,  48,  48,  48,  48, -173, -25, -545, 102,   0,   0,   0,   0
206, 450082,   0,   0,   0,   0,   0,   0,   0,   0,   0,   0,   0,   0,   0,   0,   0,   0,   0,   0,   0, -10,  12,  -7, 1147, 971, 16388,  48,  48,  48,  48, -173, -25, -545, 81,   0,   0,   0,   0
207, 452184,   0,   0,   0,   0,   0,   0,   0,   0,   0,   0,   0,   0,   0,   0,   0,   0,   0,   0,   0,   9,   7,  -5, 1132, 908, 16357,  48,  48,  48,  48, -171, -23, -550, 54,   0,   0,   0,   0
208, 454357,   0,   0,   0,   0,   0,   0,   0,   0,   0,   0,   0,   0,   0,   0,   0,   0,   0,   0,   0, -13,   4,   2, 1070, 1076, 16498,  48,  48,  48,  48, -171, -23, -550, 69,   0,   0,   0,   0
209, 456528,   0,   0,   0,   0,   0,   0,   0,   0,   0,   0,   0,   0,   0,   0,   0,   0,   0,   0,   0,  -4,   5,   6, 1016, 945, 16576,  48,  48,  48,  48, -153, -12, -551, 100,   0,   0,   0,   0
210, 458871,   0,   0,   0,   0,   0,   0,   0,   0,   0,   0,   0,   0,   0,   0,   0,   0,   0,   0,   0, -18,   1,   8, 1090, 1032, 16470,  48,  48,  48,  48, -153, -12, -551, 100,   0,   0,   0,   0
211, 461044,   0,   0,   0,   0,   0,   0,   0,   0,   0,   0,   0,   0,   0,   0,   0,   0,   0,   0,   0,  -7,  17,   0, 1051, 925, 16614,  48,  48,  48,  48, -171, -16, -546, 137,   0,   0,   0,   0
212, 463217,   0,   0,   0,   0,   0,   0,   0,   0,   0,   0,   0,   0,   0,   0,   0,   0,   0,   0,   0, -15,  11,  -6, 1076, 928, 16373,  48,  48,  48,  48, -171, -16, -546, 106,   0,   0,   0,   0
213, 465466,   0,   0,   0,   0,   0,   0,   0,   0,   0,   0,   0,   0,   0,   0,   0,   0,   0,   0,   0,   4,  -8,  -5, 1059, 981, 16583,  48,  48,  48,  48, -155, -15, -565, 134,   0,   0,   0,   0
214, 467421,   0,   0,   0,   0,   0,   0,   0,   0,   0,   0,   0,   0,   0,   0,   0,   0,   0,   0,   0,   0,   3, -11, 1047, 1028, 16346,  48,  48,  48,  48, -155, -15, -565, 98,   0,   0,   0,   0
215, 469594,   0,   0,   0,   0,   0,   0,   0,   0,   0,   0,   0,   0,   0,   0,   0,   0,   0,   0,   0,   0,   3,  -7, 957, 894, 16518,  48,  48,  48,  48, -155, -15, -565, 111,   0,   0,   0,   0
216, 471768,   0,   0,   0,   0,   0,   0,   0,   0,   0,   0,   0,   0,   0,   0,   0,   0,   0,   0,   0,  -8,   4,  -1, 1035, 1025, 16436,  48,  48,  48,  48, -155, -15, -565, 101,   0,   0,   0,   0
217, 473941,   0,   0,   0,   0,   0,   0,   0,   0,   0,   0,   0,   0,   0,   0,   0,   0,   0,   0,   0,  -3,   3,   0, 1115, 948, 16486,  48,  48,  48,  48, -155, -15, -565, 104,   0,   0,   0,   0
218, 476282,   0,   0,   0,   0,   0,   0,   0,   0,   0,   0,   0,   0,   0,   0,   0,   0,   0,   0,   0,   1,   7,  11, 1017, 889, 16420,  48,  48,  48,  48, -159, -23, -540, 91,   0,   0,   0,   0
219, 478455,   0,   0,   0,   0,   0,   0,   0,   0,   0,   0,   0,   0,   0,   0,   0,   0,   0,   0,   0,   7,  -6,  -7, 1060, 920, 16412,  48,  48,  48,  48, -159, -23, -540, 78,   0,   0,   0,   0
220, 480628,   0,   0,   0,   0,   0,   0,   0,   0,   0,   0,   0,   0,   0,   0,   0,   0,   0,   0,   0,   1,   6,  -2, 1167, 947, 16322,  48,  48,  48,  48, -158, -27, -552, 43,   0,   0,   0,   0
221, 482802,   0,   0,   0,   0,   0,   0,   0,   0,   0,   0,   0,   0,   0,   0,   0,   0,   0,   0,   0,   9,  -1,   3, 1076, 892, 16490,  48,  48,  48,  48, -158, -27, -552, 57,   0,   0,   0,   0
222, 484905,   0,   0,   0,   0,   0,   0,   0,   0,   0,   0,   0,   0,   0,   0,   0,   0,   0,   0,   0,   0,   8,   2, 1068, 976, 16412,  48,  48,  48,  48, -167, -17, -548, 49,   0,   0,   0,   0
223, 487078,   0,   0,   0,   0,   0,   0,   0,   0,   0,   0,   0,   0,   0,   0,   0,   0,   0,   0,   0,   1,   7,  -5, 1092, 904, 16486,  48,  48,  48,  48, -167, -17, -548, 60,   0,   0,   0,   0
224, 489251,   0,   0,   0,   0,   0,   0,   0,   0,   0,   0,   0,   0,   0,   0,   0,   0,   0,   0,   0,   3,   0,  -4, 1143, 959, 16350,  48,  48,  48,  48, -154, -24, -557, 35,   0,   0,   0,   0
225, 491593,   0,   0,   0,   0,   0,   0,   0,   0,   0,   0,   0,   0,   0,   0,   0,   0,   0,   0,   0,  -2,  -7,   6, 1139, 979, 16435,  48,  48,  48,  48, -154, -24, -557, 36,   0,   0,   0,   0
226, 493765,   0,   0,   0,   0,   0,   0,   0,   0,   0,   0,   0,   0,   0,   0,   0,   0,   0,   0,   0,  -1,   2,  -7, 1063, 960, 16552,  48,  48,  48,  48, -168, -21, -545, 67,   0,   0,   0,   0
227, 495938,   0,   0,   0,   0,   0,   0,   0,   0,   0,   0,   0,   0,   0,   0,   0,   0,   0,   0,   0,  18,  -2,  -6, 1123, 996, 16431,  48,  48,  48,  48, -168, -21, -545, 62,   0,   0,   0,   0
228, 498156,   0,   0,   0,   0,   0,   0,   0,   0,   0,   0,   0,   0,   0,   0,   0,   0,   0,   0,   0,   9,   4,   8, 1143, 967, 16466,  48,  48,  48,  48, -160, -18, -547, 66,   0,   0,   0,   0
229, 500257,   0,   0,   0,   0,   0,   0,   0,   0,   0,   0,   0,   0,   0,   0,   0,   0,   0,   0,   0,  -5,   8,   3, 1036, 873, 16603,  48,  48,  48,  48, -160, -18, -547, 105,   0,   0,   0,   0
230, 502445,   0,   0,   0,   0,   0,   0,   0,   0,   0,   0,   0,   0,   0,   0,   0,   0,   0,   0,   0,  10,  -7,   8, 1068, 940, 16420,  48,  48,  48,  48, -175, -16, -545, 92,   0,   0,   0,   0
231, 504602,   0,   0,   0,   0,   0,   0,   0,   0,   0,   0,   0,   0,   0,   0,   0,   0,   0,   0,   0,  -1,   1, -10, 1142, 1015, 16455,  48,  48,  48,  48, -175, -16, -545, 89,   0,   0,   0,   0
232, 506945,   0,   0,   0,   0,   0,   0,   0,   0,   0,   0,   0,   0,   0,   0,   0,   0,   0,   0,   0,  -2,   7,  -3, 1111, 956, 16478,  48,  48,  48,  48, -175, -16, -545, 92,   0,   0,   0,   0
233, 509117,   0,   0,   0,   0,   0,   0,   0,   0,   0,   0,   0,   0,   0,   0,   0,   0,   0,   0,   0,   5,  -9,  -5, 1031, 1001, 16447,  48,  48,  48,  48, -156, -19, -549, 88,   0,   0,   0,   0
234, 511290,   0,   0,   0,   0,   0,   0,   0,   0,   0,   0,   0,   0,   0,   0,   0,   0,   0,   0,   0,   7,   1,   0, 1027, 1017, 16584,  48,  48,  48,  48, -156, -19, -549, 119,   0,   0,   0,   0
235, 513538,   0,   0,   0,   0,   0,   0,   0,   0,   0,   0,   0,   0,   0,   0,   0,   0,   0,   0,   0,   2,   6,   1, 1110, 1079, 16397,  48,  48,  48,  48, -174, -15, -547, 98,   0,   0,   0,   0
236, 515495,   0,   0,   0,   0,   0,   0,   0,   0,   0,   0,   0,   0,   0,   0,   0,   0,   0,   0,   0,   3,  -3,  -1, 1052, 957, 16463,  48,  48,  48,  48, -174, -15, -547, 97,   0,   0,   0,   0
237, 517666,   0,   0,   0,   0,   0,   0,   0,   0,   0,   0,   0,   0,   0,   0,   0,   0,   0,   0,   0,  -1,  -2,  -1, 1142, 1039, 16396,  48,  48,  48,  48, -173, -13, -547, 78,   0,   0,   0,   0
238, 519839,   0,   0,   0,   0,   0,   0,   0,   0,   0,   0,   0,   0,   0,   0,   0,   0,   0,   0,   0,  -1,   3,   3, 1068, 976, 16400,  48,  48,  48,  48, -173, -13, -547, 64,   0,   0,   0,   0
239, 522013,   0,   0,   0,   0,   0,   0,   0,   0,   0,   0,   0,   0,   0,   0,   0,   0,   0,   0,   0,   0,   0,  -6, 1102, 1020, 16548,  48,  48,  48,  48, -172, -16, -548, 89,   0,   0,   0,   0
240, 524355,   0,   0,   0,   0,   0,   0,   0,   0,   0,   0,   0,   0,   0,   0,   0,   0,   0,   0,   0,   3,   1,   2, 1166, 967, 16458,  48,  48,  48,  48, -172, -16, -548, 88,   0,   0,   0,   0
241, 526527,   0,   0,   0,   0,   0,   0,   0,   0,   0,   0,   0,   0,   0,   0,   0,   0,   0,   0,   0,  -6,   8,   1, 972, 1017, 16483,  48,  48,  48,  48, -166, -25, -532, 94,   0,   0,   0,   0
242, 528700,   0,   0,   0,   0,   0,   0,   0,   0,   0,   0,   0,   0,   0,   0,   0,   0,   0,   0,   0, -12,  -2,  -9, 1090, 1032, 16467,  48,  48,  48,  48, -166, -25, -532, 94,   0,   0,   0,   0
243, 530844,   0,   0,   0,   0,   0,   0,   0,   0,   0,   0,   0,   0,   0,   0,   0,   0,   0,   0,   0,  -2,  10,   0, 1119, 936, 16556,  48,  48,  48,  48, -174, -14, -551, 116,   0,   0,   0,   0
244, 532950,   0,   0,   0,   0,   0,   0,   0,   0,   0,   0,   0,   0,   0,   0,   0,   0,   0,   0,   0,  -9,   0,   0, 1034, 1073, 16482,  48,  48,  48,  48, -174, -14, -551, 118,   0,   0,   0,   0
245, 535123,   0,   0,   0,   0,   0,   0,   0,   0,   0,   0,   0,   0,   0,   0,   0,   0,   0,   0,   0,  -9,  12,   9, 1035, 1001, 16478,  48,  48,  48,  48, -177, -14, -548, 118,   0,   0,   0,   0
246, 537296,   0,   0,   0,   0,   0,   0,   0,   0,   0,   0,   0,   0,   0,   0,   0,   0,   0,   0,   0,  -5,  25,   8, 1119, 932, 16540,  48,  48,  48,  48, -177, -14, -548, 132,   0,   0,   0,   0
247, 539639,   0,   0,   0,   0,   0,   0,   0,   0,   0,   0,   0,   0,   0,   0,   0,   0,   0,   0,   0,  -5,   0,  -3, 953, 970, 16479,  48,  48,  48,  48, -177, -14, -548, 131,   0,   0,   0,   0
248, 541811,   0,   0,   0,   0,   0,   0,   0,   0,   0,   0,   0,   0,   0,   0,   0,   0,   0,   0,   0,  -8,   3,   0, 1095, 996, 16463,  48,  48,  48,  48, -163, -18, -562, 124,   0,   0,   0,   0
249, 543984,   0,   0,   0,   0,   0,   0,   0,   0,   0,   0,   0,   0,   0,   0,   0,   0,   0,   0,   0,  -9,   3,   4, 1120, 884, 16521,  48,  48,  48,  48, -163, -18, -562, 133,   0,   0,   0,   0
250, 546228,   0,   0,   0,   0,   0,   0,   0,   0,   0,   0,   0,   0,   0,   0,   0,   0,   0,   0,   0,  -7,   0,   4, 1104, 916, 16404,  48,  48,  48,  48, -161, -18, -551, 111,   0,   0,   0,   0
251, 548329,   0,   0,   0,   0,   0,   0,   0,   0,   0,   0,   0,   0,   0,   0,   0,   0,   0,   0,   0,  -5,   8,   0, 1020, 973, 16424,  48,  48,  48,  48, -161, -18, -551, 98,   0,   0,   0,   0
252, 550502,   0,   0,   0,   0,   0,   0,   0,   0,   0,   0,   0,   0,   0,   0,   0,   0,   0,   0,   0,  -2,  12,   8, 1151, 895, 16466,  48,  48,  48,  48, -171, -22, -543, 97,   0,   0,   0,   0
253, 552675,   0,   0,   0,   0,   0,   0,   0,   0,   0,   0,   0,   0,   0,   0,   0,   0,   0,   0,   0,   0,   3,  -6, 1028, 949, 16440,  48,  48,  48,  48, -171, -22, -543, 90,   0,   0,   0,   0
254, 555018,   0,   0,   0,   0,   0,   0,   0,   0,   0,   0,   0,   0,   0,   0,   0,   0,   0,   0,   0,   0,  -1,   7, 977, 933, 16358,  48,  48,  48,  48, -170, -20, -554, 64,   0,   0,   0,   0
255, 557190,   0,   0,   0,   0,   0,   0,   0,   0,   0,   0,   0,   0,   0,   0,   0,   0,   0,   0,   0,   0,  11, -13, 1020, 997, 16432,  48,  48,  48,  48, -170, -20, -554, 61,   0,   0,   0,   0
256, 559361,   0,   0,   0,   0,   0,   0,   0,   0,   0,   0,   0,   0,   0,   0,   0,   0,   0,   0,   0,  -7,  -3,   1, 1095, 1004, 16443,  48,  48,  48,  48, -156, -13, -539, 60,   0,   0,   0,   0
257, 561610,   0,   0,   0,   0,   0,   0,   0,   0,   0,   0,   0,   0,   0,   0,   0,   0,   0,   0,   0,  -6,   2,   5, 1043, 937, 16607,  48,  48,  48,  48, -156, -13, -539, 101,   0,   0,   0,   0
258, 563564,   0,   0,   0,   0,   0,   0,   0,   0,   0,   0,   0,   0,   0,   0,   0,   0,   0,   0,   0,   4,   2,  -1, 1112, 924, 16451,  48,  48,  48,  48, -161, -27, -535, 96,   0,   0,   0,   0
259, 565738,   0,   0,   0,   0,   0,   0,   0,   0,   0,   0,   0,   0,   0,   0,   0,   0,   0,   0,   0,  -3,  10,   2, 1083, 928, 16525,  48,  48,  48,  48, -161, -27, -535, 111,   0,   0,   0,   0
260, 567911,   0,   0,   0,   0,   0,   0,   0,   0,   0,   0,   0,   0,   0,   0,   0,   0,   0,   0,   0,   0,   0,   2, 1032, 949, 16490,  48,  48,  48,  48, -171, -25, -549, 115,   0,   0,   0,   0
261, 570084,   0,   0,   0,   0,   0,   0,   0,   0,   0,   0,   0,   0,   0,   0,   0,   0,   0,   0,   0,  -6,  -4,   4, 1129, 1000, 16680,  48,  48,  48,  48, -171, -25, -549, 166,   0,   0,   0,   0
262, 572426,   0,   0,   0,   0,   0,   0,   0,   0,   0,   0,   0,   0,   0,   0,   0,   0,   0,   0,   0,  10,  -8,  -4, 1008, 945, 16533,  48,  48,  48,  48, -171, -25, -549, 172,   0,   0,   0,   0
263, 574598,   0,   0,   0,   0,   0,   0,   0,   0,   0,   0,   0,   0,   0,   0,   0,   0,   0,   0,   0,  -4,  -6,   8, 942, 870, 16518,  48,  48,  48,  48, -171, -25, -549, 174,   0,   0,   0,   0
264, 576772,   0,   0,   0,   0,   0,   0,   0,   0,   0,   0,   0,   0,   0,   0,   0,   0,   0,   0,   0,  -6,   5,  13, 1155, 951, 16303,  48,  48,  48,  48, -171, -25, -549, 120,   0,   0,   0,   0
265, 578917,   0,   0,   0,   0,   0,   0,   0,   0,   0,   0,   0,   0,   0,   0,   0,   0,   0,   0,   0,   0,   9,   4, 1049, 869, 16385,  48,  48,  48,  48, -172, -14, -545, 96,   0,   0,   0,   0
266, 581023,   0,   0,   0,   0,   0,   0,   0,   0,   0,   0,   0,   0,   0,   0,   0,   0,   0,   0,   0,  -2, -10,   0, 1009, 905, 16436,  48,  48,  48,  48, -172, -14, -545, 88,   0,   0,   0,   0
267, 583195,   0,   0,   0,   0,   0,   0,   0,   0,   0,   0,   0,   0,   0,   0,   0,   0,   0,   0,   0,  -3,  -9,  -5, 1124, 1127, 16544,  48,  48,  48,  48, -172, -13, -541, 109,   0,   0,   0,   0
268, 585367,   0,   0,   0,   0,   0,   0,   0,   0,   0,   0,   0,   0,   0,   0,   0,   0,   0,   0,   0,   6,   0,  -7, 1125, 1099, 16494,  48,  48,  48,  48, -172, -13, -541, 114,   0,   0,   0,   0
269, 587711,   0,   0,   0,   0,   0,   0,   0,   0,   0,   0,   0,   0,   0,   0,   0,   0,   0,   0,   0,   2,   3,  -5, 1166, 1015, 16443,  48,  48,  48,  48, -156, -18, -556, 105,   0,   0,   0,   0
270, 589884,   0,   0,   0,   0,   0,   0,   0,   0,   0,   0,   0,   0,   0,   0,   0,   0,   0,   0,   0,   3,   1,   6, 1222, 1174, 16618,  48,  48,  48,  48, -156, -18, -556, 141,   0,   0,   0,   0
271, 592057,   0,   0,   0,   0,   0,   0,   0,   0,   0,   0,   0,   0,   0,   0,   0,   0,   0,   0,   0,   7,  -3,  -3, 1022, 917, 16245,  48,  48,  48,  48, -161, -16, -545, 79,   0,   0,   0,   0
272, 594301,   0,   0,   0,   0,   0,   0,   0,   0,   0,   0,   0,   0,   0,   0,   0,   0,   0,   0,   0,   0,   9,  -2, 975, 814, 16397,  48,  48,  48,  48, -161, -16, -545, 64,   0,   0,   0,   0
273, 596402,   0,   0,   0,   0,   0,   0,   0,   0,   0,   0,   0,   0,   0,   0,   0,   0,   0,   0,   0,  -8,   9,   4, 986, 874, 16428,  48,  48,  48,  48, -166, -18, -545, 60,   0,   0,   0,   0
274, 598575,   0,   0,   0,   0,   0,   0,   0,   0,   0,   0,   0,   0,   0,   0,   0,   0,   0,   0,   0,   9,   4,   8, 1128, 1187, 16525,  48,  48,  48,  48, -166, -18, -545, 80,   0,   0,   0,   0
275, 600757,   0,   0,   0,   0,   0,   0,   0,   0,   0,   0,   0,   0,   0,   0,   0,   0,   0,   0,   0,   6,  -5, -10, 1128, 1131, 16575,  48,  48,  48,  48, -170, -18, -551, 110,   0,   0,   0,   0
276, 603091,   0,   0,   0,   0,   0,   0,   0,   0,   0,   0,   0,   0,   0,   0,   0,   0,   0,   0,   0,  -5,  -2,   1, 1208, 1078, 16501,  48,  48,  48,  48, -170, -18, -551, 116,   0,   0,   0,   0
277, 605261,   0,   0,   0,   0,   0,   0,   0,   0,   0,   0,   0,   0,   0,   0,   0,   0,   0,   0,   0,  -2,   0,  10, 954, 902, 16381,  48,  48,  48,  48, -161, -11, -554, 92,   0,   0,   0,   0
278, 607434,   0,   0,   0,   0,   0,   0,   0,   0,   0,   0,   0,   0,   0,   0,   0,   0,   0,   0,   0,  -5,  11,  -8, 1112, 908, 16350,  48,  48,  48,  48, -161, -11, -554, 63,   0,   0,   0,   0
279, 609683,   0,   0,   0,   0,   0,   0,   0,   0,   0,   0,   0,   0,   0,   0,   0,   0,   0,   0,   0, -18,   1,   3, 945, 950, 16444,  48,  48,  48,  48, -166, -13, -563, 63,   0,   0,   0,   0
280, 611616,   0,   0,   0,   0,   0,   0,   0,   0,   0,   0,   0,   0,   0,   0,   0,   0,   0,   0,   0,  -3,  -2,   3, 893, 994, 16432,  48,  48,  48,  48, -166, -13, -563, 61,   0,   0,   0,   0
281, 613789,   0,   0,   0,   0,   0,   0,   0,   0,   0,   0,   0,   0,   0,   0,   0,   0,   0,   0,   0,  -5,   4,  -6, 1158, 1067, 16385,  48,  48,  48,  48, -166, -13, -563, 45,   0,   0,   0,   0
282, 615963,   0,   0,   0,   0,   0,   0,   0,   0,   0,   0,   0,   0,   0,   0,   0,   0,   0,   0,   0,   0,   7,  -3, 1112, 884, 16548,  48,  48,  48,  48, -162, -10, -556, 73,   0,   0,   0,   0
283, 618136,   0,   0,   0,   0,   0,   0,   0,   0,   0,   0,   0,   0,   0,   0,   0,   0,   0,   0,   0,   0,  -5,   8, 1125, 1004, 16673,  48,  48,  48,  48, -162, -10, -556, 129,   0,   0,   0,   0
284, 620478,   0,   0,   0,   0,   0,   0,   0,   0,   0,   0,   0,   0,   0,   0,   0,   0,   0,   0,   0,  -4,   6, -11, 1038, 1089, 16552,  48,  48,  48,  48, -170, -12, -546, 146,   0,   0,   0,   0
285, 622650,   0,   0,   0,   0,   0,   0,   0,   0,   0,   0,   0,   0,   0,   0,   0,   0,   0,   0,   0,  -1,  -4,  -4, 1004, 965, 16482,  48,  48,  48,  48, -170, -12, -546, 143,   0,   0,   0,   0
286, 624824,   0,   0,   0,   0,   0,   0,   0,   0,   0,   0,   0,   0,   0,   0,   0,   0,   0,   0,   0,  -2,  -8, -11, 1107, 928, 16540,  48,  48,  48,  48, -165, -25, -560, 155,   0,   0,   0,   0
287, 627019,   0,   0,   0,   0,   0,   0,   0,   0,   0,   0,   0,   0,   0,   0,   0,   0,   0,   0,   0,   0,   3, -12, 1087, 992, 16482,  48,  48,  48,  48, -165, -25, -560, 150,   0,   0,   0,   0
288, 629121,   0,   0,   0,   0,   0,   0,   0,   0,   0,   0,   0,   0,   0,   0,   0,   0,   0,   0,   0, -10,  13,  17, 1138, 999, 16560,  48,  48,  48,  48, -160, -17, -537, 165,   0,   0,   0,   0
289, 631294,   0,   0,   0,   0,   0,   0,   0,   0,   0,   0,   0,   0,   0,   0,   0,   0,   0,   0,   0, -12,   9,  -5, 1088, 908, 16451,  48,  48,  48,  48, -160, -17, -537, 150,   0,   0,   0,   0
290, 633466,   0,   0,   0,   0,   0,   0,   0,   0,   0,   0,   0,   0,   0,   0,   0,   0,   0,   0,   0,   0,   0,   5, 1135, 975, 16400,  48,  48,  48,  48, -161, -13, -563, 125,   0,   0,   0,   0
291, 635807,   0,   0,   0,   0,   0,   0,   0,   0,   0,   0,   0,   0,   0,   0,   0,   0,   0,   0,   0,   0,   0,  10, 1084, 960, 16412,  48,  48,  48,  48, -161, -13, -563, 107,   0,   0,   0,   0
292, 637981,   0,   0,   0,   0,   0,   0,   0,   0,   0,   0,   0,   0,   0,   0,   0,   0,   0,   0,   0,   0, -10,  -3, 1127, 948, 16404,  48,  48,  48,  48, -168, -21, -536, 89,   0,   0,   0,   0
293, 640154,   0,   0,   0,   0,   0,   0,   0,   0,   0,   0,   0,   0,   0,   0,   0,   0,   0,   0,   0,  -5,   3,   2, 1094, 1060, 16517,  48,  48,  48,  48, -168, -21, -536, 103,   0,   0,   0,   0
294, 642374,   0,   0,   0,   0,   0,   0,   0,   0,   0,   0,   0,   0,   0,   0,   0,   0,   0,   0,   0,   1,  -5,  -2, 1008, 977, 16486,  48,  48,  48,  48, -174, -20, -546, 108,   0,   0,   0,   0
295, 644475,   0,   0,   0,   0,   0,   0,   0,   0,   0,   0,   0,   0,   0,   0,   0,   0,   0,   0,   0,  -4,   0,   3, 1033, 897, 16428,  48,  48,  48,  48, -174, -20, -546, 96,   0,   0,   0,   0
